{"version": 0.6, "generator": "Overpass API 0.7.62.8 e802775f", "osm3s": {"timestamp_osm_base": "2025-12-23T11:36:16Z", "copyright": "The data included in this document is from www.openstreetmap.org. The data is made available under ODbL."}, "elements": [{"type": "node", "id": 26038869, "lat": 47.5726929, "lon": 8.4660627}, {"type": "node", "id": 27552421, "lat": 47.4025702, "lon": 8.5567512}, {"type": "node", "id": 29065026, "lat": 47.5276067, "lon": 8.8799318}, {"type": "node", "id": 29271813, "lat": 47.4026423, "lon": 8.4675849}, {"type": "node", "id": 29922535, "lat": 47.6686646, "lon": 8.6061969}, {"type": "node", "id": 29973043, "lat": 47.3269232, "lon": 8.4901051, "tags": {"ele": "534", "name": "Stallikon", "name:gsw": "Stalike", "openGeoDB:auto_update": "population,is_in", "openGeoDB:community_identification_number": "G0013", "openGeoDB:is_in": "Bezirk Affoltern,Z\u00fcrich,Schweiz,Europe", "openGeoDB:is_in_loc_id": "78516", "openGeoDB:layer": "6", "openGeoDB:loc_id": "32298", "openGeoDB:name": "Stallikon", "openGeoDB:population": "3438", "openGeoDB:postal_codes": "8143", "openGeoDB:sort_name": "STALLIKON", "openGeoDB:type": "Gemeinde", "openGeoDB:version": "0.2.6.11 / 2007-12-04 / http://fa-technik.adfc.de/code/opengeodb/dump/", "opengeodb:lat": "47.3266961", "opengeodb:lon": "8.489109", "place": "village", "population": "3438", "postal_code": "8143", "website": "https://www.stallikon.ch/", "wikidata": "Q66062", "wikipedia": "de:Stallikon"}}, {"type": "node", "id": 29973047, "lat": 47.3424271, "lon": 8.5307085, "tags": {"is_in": "Z\u00fcrich", "name": "Wollishofen", "name:gsw": "Wollishofe", "place": "suburb", "wikidata": "Q642353", "wikimedia_commons": "Category:Wollishofen", "wikipedia": "de:Wollishofen"}}, {"type": "node", "id": 30757709, "lat": 47.270428, "lon": 8.6412249, "tags": {"ele": "420", "name": "Meilen", "name:de": "Meilen", "name:gsw": "Meile", "place": "town", "population": "13515", "postal_code": "8706", "website": "https://www.meilen.ch/", "wikidata": "Q68261", "wikipedia": "de:Meilen"}}, {"type": "node", "id": 30757711, "lat": 47.3574748, "lon": 8.5598647, "tags": {"is_in": "Z\u00fcrich", "name": "Riesbach", "name:gsw": "Rieschbach", "place": "suburb", "wikidata": "Q677710", "wikipedia": "de:Riesbach"}}, {"type": "node", "id": 30757714, "lat": 47.2688678, "lon": 8.7452239}, {"type": "node", "id": 30757715, "lat": 47.2678183, "lon": 8.7466381}, {"type": "node", "id": 30757716, "lat": 47.2665541, "lon": 8.7501801}, {"type": "node", "id": 30757720, "lat": 47.2688313, "lon": 8.7556432}, {"type": "node", "id": 30757733, "lat": 47.2683991, "lon": 8.7601875}, {"type": "node", "id": 30757734, "lat": 47.2687749, "lon": 8.761644}, {"type": "node", "id": 33293777, "lat": 47.2883736, "lon": 8.3903654}, {"type": "node", "id": 60552122, "lat": 47.333565, "lon": 8.5404033}, {"type": "node", "id": 60710401, "lat": 47.4651146, "lon": 8.5317819}, {"type": "node", "id": 61279806, "lat": 47.4547715, "lon": 8.5462769}, {"type": "node", "id": 63030860, "lat": 47.3874029, "lon": 8.4860612, "tags": {"is_in": "Z\u00fcrich", "name": "Altstetten", "name:gsw": "Altstette", "place": "suburb", "wikidata": "Q445711", "wikimedia_commons": "Category:Altstetten", "wikipedia": "de:Altstetten"}}, {"type": "node", "id": 63644275, "lat": 47.3606482, "lon": 8.4640639}, {"type": "node", "id": 83325451, "lat": 47.3327215, "lon": 8.5395678}, {"type": "node", "id": 92572026, "lat": 47.4138547, "lon": 8.5454219}, {"type": "node", "id": 102326351, "lat": 47.4507163, "lon": 8.5299122, "tags": {"ele": "443", "name": "R\u00fcmlang", "name:gsw": "R\u00fcmlinge", "place": "village", "population": "7752", "postal_code": "8153", "website": "https://www.ruemlang.ch/", "wikidata": "Q67894", "wikipedia": "de:R\u00fcmlang"}}, {"type": "node", "id": 104007805, "lat": 47.6107137, "lon": 8.4778544, "tags": {"alt_name": "Grenz\u00fcbergang Wil-Grenze", "barrier": "border_control", "bicycle": "yes", "contact:city": "Embrach", "contact:email": "zoll.zuerich@bazg.admin.ch", "contact:housenumber": "125", "contact:phone": "+41 58 481 30 80", "contact:postcode": "8424", "contact:street": "Bergstrasse", "contact:website": "https://www.offices.customs.admin.ch/dst/print?id=761", "foot": "yes", "horse": "yes", "motorcar": "yes", "motorcycle": "yes", "name": "Zoll Wil-Grenze", "old_name": "Zoll Wil-B\u00fchl;Grenz\u00fcbergang Wil-B\u00fchl", "opening_hours": "24/7", "operator": "Bundesamt f\u00fcr Zoll und Grenzsicherheit BAZG", "ref": "219"}}, {"type": "node", "id": 105421087, "lat": 47.5275679, "lon": 8.6073741}, {"type": "node", "id": 232931369, "lat": 47.4179639, "lon": 8.5614677}, {"type": "node", "id": 232931372, "lat": 47.4149146, "lon": 8.5611453}, {"type": "node", "id": 232964785, "lat": 47.35831, "lon": 8.590628, "tags": {"is_in": "Z\u00fcrich", "name": "Witikon", "name:gsw": "Witike", "place": "suburb", "wikidata": "Q392079", "wikimedia_commons": "Category:Witikon", "wikipedia": "de:Witikon"}}, {"type": "node", "id": 240025182, "lat": 47.3744489, "lon": 8.5410422, "tags": {"admin_centre:4": "yes", "ele": "408", "name": "Z\u00fcrich", "name:af": "Z\u00fcrich", "name:als": "Z\u00fcrich", "name:am": "\u12d9\u122a\u12ad", "name:an": "Z\u00farich", "name:ar": "\u0632\u064a\u0648\u0631\u062e", "name:arc": "\u072c\u0723\u071d\u072a\u071d\u071f", "name:arz": "\u0632\u0648\u0631\u064a\u062e", "name:az": "S\u00fcrix", "name:bar": "Zirich", "name:be": "\u0426\u044e\u0440\u044b\u0445", "name:be-tarask": "\u0426\u044e\u0440\u044b\u0445", "name:bg": "\u0426\u044e\u0440\u0438\u0445", "name:bn": "\u099c\u09c1\u09b0\u09bf\u0996", "name:br": "Z\u00fcrich", "name:bs": "Z\u00fcrich", "name:ca": "Z\u00faric", "name:ce": "\u0426\u0443\u044c\u0440\u0438\u0445", "name:cs": "Curych", "name:cv": "\u0426\u044e\u0440\u0438\u0445", "name:cy": "Z\u00fcrich", "name:da": "Z\u00fcrich", "name:de": "Z\u00fcrich", "name:el": "\u0396\u03c5\u03c1\u03af\u03c7\u03b7", "name:en": "Zurich", "name:eo": "Zuriko", "name:es": "Z\u00farich", "name:et": "Z\u00fcrich", "name:eu": "Z\u00fcrich", "name:fa": "\u0632\u0648\u0631\u06cc\u062e", "name:fi": "Z\u00fcrich", "name:fj": "Zuriki", "name:fr": "Zurich", "name:frp": "Tsurique", "name:frr": "Z\u00fcrich", "name:fur": "Zurich", "name:fy": "Z\u00fcrich", "name:ga": "Z\u00fcrich", "name:gd": "Z\u00fcrich", "name:gl": "Z\u00faric", "name:gsw": "Z\u00fcri", "name:he": "\u05e6\u05d9\u05e8\u05d9\u05da", "name:hi": "\u091c\u093c\u094d\u092f\u0942\u0930\u093f\u0916\u093c", "name:hr": "Z\u00fcrich", "name:hsb": "Z\u00fcrich", "name:ht": "Zirik", "name:hu": "Z\u00fcrich", "name:hy": "\u0551\u0575\u0578\u0582\u0580\u056b\u056d", "name:ia": "Zurich", "name:id": "Z\u00fcrich", "name:ie": "Z\u00farich", "name:ilo": "Z\u00fcrich", "name:io": "Z\u00fcrich", "name:is": "Z\u00fcrich", "name:it": "Zurigo", "name:ja": "\u30c1\u30e5\u30fc\u30ea\u30c3\u30d2", "name:jv": "Z\u00fcrich", "name:ka": "\u10ea\u10d8\u10e3\u10e0\u10d8\u10ee\u10d8", "name:kk": "\u0426\u044e\u0440\u0438\u0445", "name:kn": "\u0c9d\u0ccd\u0caf\u0cc2\u0cb0\u0cbf\u0c96\u0ccd", "name:ko": "\ucde8\ub9ac\ud788", "name:ku": "Zur\u00eex", "name:la": "Turicum", "name:lb": "Z\u00fcrech", "name:li": "Zeurich", "name:lmo": "Z\u00fcrigh", "name:ln": "Ts\u00fari", "name:lt": "Ciurichas", "name:lv": "C\u012brihe", "name:mk": "\u0426\u0438\u0440\u0438\u0445", "name:ml": "\u0d38\u0d42\u0d31\u0d3f\u0d1a\u0d4d\u0d1a\u0d4d", "name:mn": "\u0426\u044e\u0440\u0438\u0445", "name:mr": "\u091d\u094d\u092f\u0941\u0930\u093f\u0915", "name:ms": "Z\u00fcrich", "name:mt": "Zurich", "name:my": "\u1007\u1030\u1038\u101b\u1005\u103a\u1001\u103b\u103a\u1019\u103c\u102d\u102f\u1037", "name:na": "Z\u00fcrich", "name:nah": "Zurich", "name:nan": "Z\u00fcrich", "name:nds": "Z\u00fcrich", "name:nl": "Z\u00fcrich", "name:nn": "Z\u00fcrich", "name:no": "Z\u00fcrich", "name:oc": "Zuric", "name:os": "\u0426\u044e\u0440\u0438\u0445", "name:pa": "\u0a1c\u0a3c\u0a3f\u0a0a\u0a30\u0a3f\u0a16", "name:pdc": "Zurich", "name:pfl": "Zirich", "name:pl": "Zurych", "name:pms": "Zurigh", "name:pnb": "\u0632\u06cc\u0648\u0631\u0686", "name:ps": "\u0685\u0648\u0631\u06cc\u062e", "name:pt": "Zurique", "name:qu": "Z\u00fcrich", "name:rm": "Turitg", "name:rn": "Zurich", "name:ro": "Z\u00fcrich", "name:ru": "\u0426\u044e\u0440\u0438\u0445", "name:scn": "Zur\u00eccu", "name:sh": "Z\u00fcrich", "name:sk": "Z\u00fcrich", "name:sl": "Z\u00fcrich", "name:sq": "Cyrihu", "name:sr": "\u0426\u0438\u0440\u0438\u0445", "name:sv": "Z\u00fcrich", "name:sw": "Z\u00fcrich", "name:ta": "\u0b9a\u0bc2\u0bb0\u0bbf\u0b95\u0bcd", "name:tg": "\u0422\u0441\u044e\u0440\u0438\u0445", "name:th": "\u0e0b\u0e39\u0e23\u0e34\u0e01", "name:tl": "Z\u00fcrich", "name:tr": "Z\u00fcrih", "name:tt": "Ts\u00fcrix", "name:ug": "\u0633\u064a\u06c7\u0631\u0649\u062e", "name:uk": "\u0426\u044e\u0440\u0438\u0445", "name:ur": "\u0632\u06cc\u0648\u0631\u062e", "name:uz": "Syurix", "name:vec": "Zurigo", "name:vi": "Z\u00fcrich", "name:vo": "Z\u00fcrich", "name:war": "Z\u00fcrich", "name:wo": "Zurich", "name:wuu": "\u82cf\u9ece\u4e16", "name:yi": "\u05e6\u05d9\u05e8\u05d9\u05da", "name:yo": "Z\u00fcrich", "name:yue": "\u8607\u9ece\u4e16", "name:zh": "\u8607\u9ece\u4e16", "name:zh-Hans": "\u82cf\u9ece\u4e16", "name:zh-Hant": "\u8607\u9ece\u4e16", "openGeoDB:license_plate_code": "ZH", "openGeoDB:loc_id": "32325", "openGeoDB:postal_codes": "8000\u20138099", "place": "city", "population": "443037", "population:date": "2022-12-31", "website": "https://www.stadt-zuerich.ch/", "wikidata": "Q72", "wikipedia": "de:Z\u00fcrich"}}, {"type": "node", "id": 240035354, "lat": 47.3225316, "lon": 8.5459483, "tags": {"ele": "408", "is_in": "Bezirk Horgen,Z\u00fcrich,Schweiz,Europe", "name": "Kilchberg", "name:de": "Kilchberg", "name:gsw": "Chilchberg", "official_name": "Kilchberg (ZH)", "openGeoDB:auto_update": "population,place,name,is_in", "openGeoDB:community_identification_number": "G0135", "openGeoDB:is_in": "Bezirk Horgen,Z\u00fcrich,Schweiz,Europe", "openGeoDB:is_in_loc_id": "78521", "openGeoDB:layer": "6", "openGeoDB:license_plate_code": "ZH", "openGeoDB:loc_id": "78740", "openGeoDB:location": "political_structure", "openGeoDB:name": "Kilchberg (ZH)", "openGeoDB:population": "8077", "openGeoDB:postal_codes": "8802", "openGeoDB:sort_name": "KILCHBERG", "openGeoDB:type": "Gemeinde", "openGeoDB:version": "0.2.6.11 / 2007-12-04 / http://fa-technik.adfc.de/code/opengeodb/dump/", "place": "village", "population": "8077", "postal_code": "8802", "website": "https://www.kilchberg.ch/", "wikidata": "Q66633", "wikipedia": "de:Kilchberg ZH"}}, {"type": "node", "id": 240076764, "lat": 47.409141, "lon": 8.4626927, "tags": {"ele": "413", "name": "Oberengstringen", "name:de": "Oberengstringen", "name:gsw": "Obereischtringe", "place": "village", "population": "6464", "postal_code": "8102", "website": "https://www.oberengstringen.ch/", "wikidata": "Q69963", "wikipedia": "de:Oberengstringen"}}, {"type": "node", "id": 240112180, "lat": 47.4322671, "lon": 8.5779983, "tags": {"ele": "459", "name": "Opfikon", "name:de": "Opfikon", "name:gsw": "Opfike", "name:ru": "\u041e\u043f\u0444\u0438\u043a\u043e\u043d", "place": "town", "population": "18482", "postal_code": "8152", "website": "https://www.opfikon.ch/", "wikidata": "Q64224", "wikipedia": "de:Opfikon"}}, {"type": "node", "id": 257804785, "lat": 47.6140106, "lon": 8.5710145, "tags": {"TMC:cid_58:tabcd_1:Class": "Point", "TMC:cid_58:tabcd_1:LCLversion": "9.00", "TMC:cid_58:tabcd_1:LocationCode": "22331", "TMC:cid_58:tabcd_1:NextLocationCode": "22332"}}, {"type": "node", "id": 259016462, "lat": 47.3376528, "lon": 8.7577627}, {"type": "node", "id": 260878020, "lat": 47.6144565, "lon": 8.4934036, "tags": {"alt_name": "Grenz\u00fcbergang Wil-Buchenloo", "barrier": "border_control", "bicycle": "yes", "contact:city": "Embrach", "contact:housenumber": "125", "contact:phone": "+41 58 481 30 80", "contact:postcode": "8424", "contact:street": "Bergstrasse", "contact:website": "https://www.offices.customs.admin.ch/dst/print?id=761", "foot": "yes", "horse": "yes", "motorcar": "yes", "motorcycle": "yes", "name": "Zoll Wil-Buchenloo", "old_name": "Zoll Wil-Dettighofen; Grenz\u00fcbergang Wil-Dettighofen", "opening_hours": "24/7", "operator": "Bundesamt f\u00fcr Zoll und Grenzsicherheit BAZG"}}, {"type": "node", "id": 264599765, "lat": 47.4212681, "lon": 8.4774205}, {"type": "node", "id": 279063798, "lat": 47.305809, "lon": 8.4813858}, {"type": "node", "id": 280901784, "lat": 47.2681279, "lon": 8.746332}, {"type": "node", "id": 281267079, "lat": 47.2570478, "lon": 8.786475}, {"type": "node", "id": 281267080, "lat": 47.2568577, "lon": 8.7867707}, {"type": "node", "id": 281267081, "lat": 47.2565865, "lon": 8.7874634}, {"type": "node", "id": 281267082, "lat": 47.2564851, "lon": 8.7875826}, {"type": "node", "id": 281267083, "lat": 47.2562349, "lon": 8.7878035}, {"type": "node", "id": 281267084, "lat": 47.2555317, "lon": 8.78905}, {"type": "node", "id": 281267085, "lat": 47.255142, "lon": 8.7897741}, {"type": "node", "id": 281267086, "lat": 47.2549607, "lon": 8.7904007}, {"type": "node", "id": 281629828, "lat": 47.4408132, "lon": 8.5644829}, {"type": "node", "id": 282560126, "lat": 47.2689993, "lon": 8.7571208}, {"type": "node", "id": 296480705, "lat": 47.4050746, "lon": 8.4030765, "tags": {"ele": "388", "name": "Dietikon", "name:de": "Dietikon", "name:gsw": "Diedike", "name:uk": "\u0414\u0456\u0442\u0456\u043a\u043e\u043d", "place": "town", "population": "27904", "population:date": "2022-01-01", "postal_code": "8953", "source:population": "https://www.dietikon.ch/", "website": "https://www.dietikon.ch/", "wikidata": "Q64070", "wikipedia": "de:Dietikon"}}, {"type": "node", "id": 301576651, "lat": 47.432657, "lon": 8.5276682}, {"type": "node", "id": 302953696, "lat": 47.6683974, "lon": 8.6776184}, {"type": "node", "id": 302953709, "lat": 47.6720012, "lon": 8.6762765}, {"type": "node", "id": 305560500, "lat": 47.5985662, "lon": 8.7475774}, {"type": "node", "id": 313870420, "lat": 47.4133024, "lon": 8.656394, "tags": {"name": "Z\u00fcrich", "name:ar": "\u0632\u064a\u0648\u0631\u062e", "name:be": "\u0426\u044e\u0440\u044b\u0445", "name:de": "Z\u00fcrich", "name:en": "Zurich", "name:eo": "Zuriko", "name:es": "Z\u00farich", "name:fr": "Zurich", "name:gsw": "Z\u00fcri", "name:it": "Zurigo", "name:ja": "\u30c1\u30e5\u30fc\u30ea\u30c3\u30d2\u5dde", "name:rm": "Turtig", "name:ru": "\u0426\u044e\u0440\u0438\u0445", "name:uk": "\u0426\u044e\u0440\u0438\u0445", "note": "Dieser Punkt dient zur Platzierung der Kantonsbeschriftung - bitte nicht l\u00f6schen // This node is used to place the name of the canton - please do not delete", "place": "state", "ref": "ZH", "wikidata": "Q11943"}}, {"type": "node", "id": 319189145, "lat": 47.4475354, "lon": 8.54596}, {"type": "node", "id": 364084764, "lat": 47.3192727, "lon": 8.4833263}, {"type": "node", "id": 368331513, "lat": 47.411121, "lon": 8.513227}, {"type": "node", "id": 370054762, "lat": 47.4100296, "lon": 8.5692072}, {"type": "node", "id": 370406653, "lat": 47.1665916, "lon": 8.6607446}, {"type": "node", "id": 370432864, "lat": 47.2654897, "lon": 8.7808649}, {"type": "node", "id": 370433011, "lat": 47.2656432, "lon": 8.77953}, {"type": "node", "id": 370433018, "lat": 47.2688591, "lon": 8.7622249}, {"type": "node", "id": 386908790, "lat": 47.4701307, "lon": 8.883603}, {"type": "node", "id": 392907536, "lat": 47.2554305, "lon": 8.7891582}, {"type": "node", "id": 393771275, "lat": 47.5664122, "lon": 8.8420739}, {"type": "node", "id": 408479931, "lat": 47.1798389, "lon": 8.6804003}, {"type": "node", "id": 411724662, "lat": 47.4556588, "lon": 8.8994124}, {"type": "node", "id": 416086079, "lat": 47.3295504, "lon": 8.4454955}, {"type": "node", "id": 432659211, "lat": 47.4342537, "lon": 8.4182883}, {"type": "node", "id": 433182774, "lat": 47.4116716, "lon": 8.4708498}, {"type": "node", "id": 436131240, "lat": 47.4342599, "lon": 8.4183136}, {"type": "node", "id": 439187729, "lat": 47.3518951, "lon": 8.5330914}, {"type": "node", "id": 440971123, "lat": 47.4559099, "lon": 8.8992569}, {"type": "node", "id": 457685671, "lat": 47.478985, "lon": 8.8846066}, {"type": "node", "id": 458104181, "lat": 47.5174081, "lon": 8.6243901}, {"type": "node", "id": 474381146, "lat": 47.3754528, "lon": 8.5169292}, {"type": "node", "id": 474381147, "lat": 47.3754347, "lon": 8.5168708}, {"type": "node", "id": 491045619, "lat": 47.5760262, "lon": 8.5780066}, {"type": "node", "id": 525803466, "lat": 47.4016598, "lon": 8.4976694, "tags": {"name": "H\u00f6ngg", "name:gsw": "H\u00f6ngg", "place": "suburb", "wikidata": "Q455496", "wikimedia_commons": "Category:H\u00f6ngg", "wikipedia": "de:H\u00f6ngg"}}, {"type": "node", "id": 525808152, "lat": 47.3934951, "lon": 8.5286022, "tags": {"is_in": "Z\u00fcrich", "name": "Wipkingen", "name:gsw": "Wickinge", "place": "suburb", "wikidata": "Q678030", "wikimedia_commons": "Category:Wipkingen", "wikipedia": "de:Wipkingen"}}, {"type": "node", "id": 525885695, "lat": 47.4187622, "lon": 8.507186, "tags": {"is_in": "Z\u00fcrich", "name": "Affoltern", "name:gsw": "Afoltere", "place": "suburb", "wikidata": "Q382903", "wikipedia": "de:Affoltern (Stadt Z\u00fcrich)"}}, {"type": "node", "id": 525889296, "lat": 47.420438, "lon": 8.5483773, "tags": {"is_in": "Z\u00fcrich", "name": "Seebach", "name:gsw": "Seebach", "place": "suburb", "wikidata": "Q276792", "wikipedia": "de:Seebach (Stadt Z\u00fcrich)"}}, {"type": "node", "id": 525891520, "lat": 47.4104211, "lon": 8.5445851, "tags": {"is_in": "Z\u00fcrich", "name": "Oerlikon", "name:gsw": "\u00d6rlike", "place": "suburb", "wikidata": "Q167179", "wikipedia": "de:Oerlikon"}}, {"type": "node", "id": 525893914, "lat": 47.4049996, "lon": 8.5724143, "tags": {"is_in": "Z\u00fcrich", "name": "Schwamendingen", "name:gsw": "Schwamedinge", "place": "suburb", "wikidata": "Q657525", "wikipedia": "de:Schwamendingen"}}, {"type": "node", "id": 525903857, "lat": 47.3767769, "lon": 8.5587745, "tags": {"is_in": "Z\u00fcrich", "name": "Fluntern", "name:gsw": "Fluentere", "place": "suburb", "wikidata": "Q693269", "wikimedia_commons": "Category:Fluntern", "wikipedia": "de:Fluntern"}}, {"type": "node", "id": 534422238, "lat": 47.462895, "lon": 8.53288}, {"type": "node", "id": 534422265, "lat": 47.4633802, "lon": 8.5351758}, {"type": "node", "id": 537554106, "lat": 47.4148722, "lon": 8.5609768}, {"type": "node", "id": 537554109, "lat": 47.4147389, "lon": 8.5602749}, {"type": "node", "id": 539669705, "lat": 47.4138604, "lon": 8.5453142}, {"type": "node", "id": 549004354, "lat": 47.4430702, "lon": 8.5514995}, {"type": "node", "id": 551483648, "lat": 47.6574931, "lon": 8.8048083}, {"type": "node", "id": 554990928, "lat": 47.1609515, "lon": 8.6612293, "tags": {"highway": "turning_circle"}}, {"type": "node", "id": 571404874, "lat": 47.2877451, "lon": 8.7376406}, {"type": "node", "id": 597656067, "lat": 47.5473841, "lon": 8.8322371}, {"type": "node", "id": 597656076, "lat": 47.5498395, "lon": 8.8310256}, {"type": "node", "id": 603090118, "lat": 47.3696799, "lon": 8.5550821, "tags": {"is_in": "Z\u00fcrich", "name": "Hottingen", "name:gsw": "Hottinge", "place": "suburb", "wikidata": "Q693454", "wikimedia_commons": "Category:Hottingen", "wikipedia": "de:Hottingen (Stadt Z\u00fcrich)"}}, {"type": "node", "id": 603090126, "lat": 47.3629482, "lon": 8.5642692, "tags": {"is_in": "Z\u00fcrich", "name": "Hirslanden", "name:gsw": "Hirslande", "place": "suburb", "wikidata": "Q476940", "wikimedia_commons": "Category:Hirslanden", "wikipedia": "de:Hirslanden"}}, {"type": "node", "id": 603102174, "lat": 47.3914474, "lon": 8.5395724, "tags": {"is_in": "Z\u00fcrich", "name": "Unterstrass", "name:gsw": "Understrass", "place": "suburb", "wikidata": "Q656446", "wikimedia_commons": "Category:Unterstrass", "wikipedia": "de:Unterstrass (Stadt Z\u00fcrich)"}}, {"type": "node", "id": 603102175, "lat": 47.3875069, "lon": 8.5206272, "tags": {"is_in": "Z\u00fcrich", "name": "Industriequartier", "place": "suburb", "wikidata": "Q460885", "wikipedia": "de:Industriequartier"}}, {"type": "node", "id": 603102176, "lat": 47.3787138, "lon": 8.5212002, "tags": {"name": "Aussersihl", "name:gsw": "Ussersihl", "place": "suburb", "postal_code": "8004", "wikidata": "Q677133", "wikipedia": "de:Aussersihl"}}, {"type": "node", "id": 603102177, "lat": 47.3662672, "lon": 8.5107128, "tags": {"admin_level": "9", "is_in": "Z\u00fcrich", "name": "Wiedikon", "name:gsw": "Wiedike", "place": "suburb", "wikidata": "Q675017", "wikipedia": "de:Wiedikon"}}, {"type": "node", "id": 603102178, "lat": 47.3617894, "lon": 8.528708, "tags": {"name": "Enge", "name:gsw": "\u00c4ngi", "place": "suburb", "postal_code": "8002", "wikidata": "Q648218", "wikimedia_commons": "Category:Enge", "wikipedia": "de:Enge"}}, {"type": "node", "id": 603102179, "lat": 47.3857063, "lon": 8.5491245, "tags": {"is_in": "Z\u00fcrich", "name": "Oberstrass", "name:gsw": "Oberstrass", "place": "suburb", "wikidata": "Q693483", "wikipedia": "de:Oberstrass (Stadt Z\u00fcrich)"}}, {"type": "node", "id": 603107038, "lat": 47.3305108, "lon": 8.5125393, "tags": {"is_in": "Z\u00fcrich", "name": "Leimbach", "name:gsw": "Leibach", "place": "suburb", "wikidata": "Q691367", "wikimedia_commons": "Category:Leimbach (Z\u00fcrich)", "wikipedia": "de:Leimbach (Stadt Z\u00fcrich)"}}, {"type": "node", "id": 603107934, "lat": 47.3722329, "lon": 8.5423291, "tags": {"is_in": "Z\u00fcrich", "name": "Altstadt", "name:fr": "Vieille Ville", "place": "suburb", "wikidata": "Q445559", "wikipedia": "de:Altstadt (Stadt Z\u00fcrich)"}}, {"type": "node", "id": 619059055, "lat": 47.3063276, "lon": 8.9644437, "tags": {"ele": "1154", "name": "T\u00f6ssstock", "natural": "peak", "wikidata": "Q1238435"}}, {"type": "node", "id": 638467859, "lat": 47.4114758, "lon": 8.5122685}, {"type": "node", "id": 683442272, "lat": 47.494197, "lon": 8.8935305}, {"type": "node", "id": 693248657, "lat": 47.4168158, "lon": 8.5371695}, {"type": "node", "id": 746727284, "lat": 47.377241, "lon": 8.7417673}, {"type": "node", "id": 770021290, "lat": 47.3384667, "lon": 8.6095059}, {"type": "node", "id": 770691317, "lat": 47.416778, "lon": 8.5368224}, {"type": "node", "id": 915430026, "lat": 47.6834255, "lon": 8.6693243}, {"type": "node", "id": 957259218, "lat": 47.6915367, "lon": 8.6262936}, {"type": "node", "id": 1013861178, "lat": 47.3660194, "lon": 8.5404076}, {"type": "node", "id": 1013861189, "lat": 47.3659439, "lon": 8.5404353}, {"type": "node", "id": 1013861192, "lat": 47.3659728, "lon": 8.5406091}, {"type": "node", "id": 1042961925, "lat": 47.3662402, "lon": 8.5402419}, {"type": "node", "id": 1074623732, "lat": 47.3618814, "lon": 8.4621041}, {"type": "node", "id": 1074623746, "lat": 47.3621317, "lon": 8.4603312}, {"type": "node", "id": 1074623781, "lat": 47.3625395, "lon": 8.4614445}, {"type": "node", "id": 1074623889, "lat": 47.3616129, "lon": 8.4624978}, {"type": "node", "id": 1074623904, "lat": 47.3622914, "lon": 8.4612351}, {"type": "node", "id": 1074623919, "lat": 47.3609873, "lon": 8.463001}, {"type": "node", "id": 1074623934, "lat": 47.3624254, "lon": 8.461874}, {"type": "node", "id": 1140493237, "lat": 47.2655596, "lon": 8.7794617}, {"type": "node", "id": 1140493253, "lat": 47.2658391, "lon": 8.7784334}, {"type": "node", "id": 1140493271, "lat": 47.2660452, "lon": 8.7781597}, {"type": "node", "id": 1140493273, "lat": 47.2654553, "lon": 8.7806831}, {"type": "node", "id": 1140493274, "lat": 47.2654988, "lon": 8.7802785}, {"type": "node", "id": 1140493280, "lat": 47.2659106, "lon": 8.7784921}, {"type": "node", "id": 1140493298, "lat": 47.265577, "lon": 8.7798098}, {"type": "node", "id": 1140493303, "lat": 47.2654186, "lon": 8.7793329}, {"type": "node", "id": 1140493304, "lat": 47.2662993, "lon": 8.7784236}, {"type": "node", "id": 1141450132, "lat": 47.2694039, "lon": 8.7522926}, {"type": "node", "id": 1141450139, "lat": 47.2693476, "lon": 8.7572327}, {"type": "node", "id": 1141450141, "lat": 47.2702658, "lon": 8.7629589}, {"type": "node", "id": 1141450153, "lat": 47.2693311, "lon": 8.7554177}, {"type": "node", "id": 1141450163, "lat": 47.2688482, "lon": 8.7584949}, {"type": "node", "id": 1141450172, "lat": 47.2704012, "lon": 8.7635284}, {"type": "node", "id": 1141450173, "lat": 47.2664269, "lon": 8.7505776}, {"type": "node", "id": 1141450176, "lat": 47.2688872, "lon": 8.7585378}, {"type": "node", "id": 1141450193, "lat": 47.2704187, "lon": 8.7643351}, {"type": "node", "id": 1141450214, "lat": 47.2689508, "lon": 8.7619636}, {"type": "node", "id": 1141450223, "lat": 47.2698036, "lon": 8.7626947}, {"type": "node", "id": 1141450227, "lat": 47.2688575, "lon": 8.7551743}, {"type": "node", "id": 1141450238, "lat": 47.2693742, "lon": 8.7559351}, {"type": "node", "id": 1141450243, "lat": 47.2674877, "lon": 8.7513046}, {"type": "node", "id": 1141450244, "lat": 47.2685878, "lon": 8.7569234}, {"type": "node", "id": 1141450245, "lat": 47.2688271, "lon": 8.7620865}, {"type": "node", "id": 1141450255, "lat": 47.2696128, "lon": 8.7619371}, {"type": "node", "id": 1141450261, "lat": 47.2702487, "lon": 8.7636782}, {"type": "node", "id": 1141450287, "lat": 47.268785, "lon": 8.7608968}, {"type": "node", "id": 1141450290, "lat": 47.269644, "lon": 8.7624038}, {"type": "node", "id": 1141818199, "lat": 47.2687335, "lon": 8.7451134}, {"type": "node", "id": 1141818237, "lat": 47.2674017, "lon": 8.7481137}, {"type": "node", "id": 1141818253, "lat": 47.2683986, "lon": 8.7457893}, {"type": "node", "id": 1141818288, "lat": 47.2664901, "lon": 8.7503447}, {"type": "node", "id": 1141818310, "lat": 47.2683089, "lon": 8.7461306}, {"type": "node", "id": 1224679735, "lat": 47.362804, "lon": 8.5499711}, {"type": "node", "id": 1233823312, "lat": 47.3812049, "lon": 8.530975}, {"type": "node", "id": 1234120762, "lat": 47.1703235, "lon": 8.6606606}, {"type": "node", "id": 1271035643, "lat": 47.3519529, "lon": 8.5330094, "tags": {"barrier": "gate"}}, {"type": "node", "id": 1308572563, "lat": 47.3622479, "lon": 8.5504201}, {"type": "node", "id": 1308572615, "lat": 47.3622712, "lon": 8.5504423}, {"type": "node", "id": 1308578744, "lat": 47.3623878, "lon": 8.5503378}, {"type": "node", "id": 1355566093, "lat": 47.3519381, "lon": 8.5330802}, {"type": "node", "id": 1358173616, "lat": 47.2530216, "lon": 8.7908595}, {"type": "node", "id": 1358173617, "lat": 47.2534852, "lon": 8.7909715}, {"type": "node", "id": 1358173618, "lat": 47.2538187, "lon": 8.790798}, {"type": "node", "id": 1360351755, "lat": 47.3666901, "lon": 8.5232294}, {"type": "node", "id": 1360351767, "lat": 47.3671604, "lon": 8.5234901}, {"type": "node", "id": 1360351772, "lat": 47.3659205, "lon": 8.5234649}, {"type": "node", "id": 1372140983, "lat": 47.1594376, "lon": 8.6741655}, {"type": "node", "id": 1372140984, "lat": 47.1594451, "lon": 8.6749784}, {"type": "node", "id": 1372140985, "lat": 47.1594597, "lon": 8.6681773}, {"type": "node", "id": 1372140986, "lat": 47.1594848, "lon": 8.6673234}, {"type": "node", "id": 1372140987, "lat": 47.1595221, "lon": 8.6725959}, {"type": "node", "id": 1372140988, "lat": 47.1596092, "lon": 8.6661344}, {"type": "node", "id": 1372140989, "lat": 47.1596112, "lon": 8.6665988}, {"type": "node", "id": 1372140990, "lat": 47.1596659, "lon": 8.6657734}, {"type": "node", "id": 1372140991, "lat": 47.1596732, "lon": 8.6755051}, {"type": "node", "id": 1372140992, "lat": 47.1597015, "lon": 8.6719412}, {"type": "node", "id": 1372140993, "lat": 47.1597094, "lon": 8.6702625}, {"type": "node", "id": 1372140994, "lat": 47.1599354, "lon": 8.6647025}, {"type": "node", "id": 1372140995, "lat": 47.1600639, "lon": 8.6760544}, {"type": "node", "id": 1372140996, "lat": 47.1603351, "lon": 8.6640042}, {"type": "node", "id": 1372140997, "lat": 47.1605003, "lon": 8.6627626}, {"type": "node", "id": 1372140998, "lat": 47.1605236, "lon": 8.6623383}, {"type": "node", "id": 1372140999, "lat": 47.1605451, "lon": 8.6634986}, {"type": "node", "id": 1372141000, "lat": 47.1607073, "lon": 8.6763556}, {"type": "node", "id": 1372141001, "lat": 47.1607603, "lon": 8.6613832}, {"type": "node", "id": 1372141003, "lat": 47.1609858, "lon": 8.6776843}, {"type": "node", "id": 1372141004, "lat": 47.1615395, "lon": 8.679279}, {"type": "node", "id": 1372141005, "lat": 47.1619856, "lon": 8.6803255}, {"type": "node", "id": 1372141006, "lat": 47.1620117, "lon": 8.6812578}, {"type": "node", "id": 1372141007, "lat": 47.1621422, "lon": 8.6824264}, {"type": "node", "id": 1372141008, "lat": 47.1623554, "lon": 8.6835709}, {"type": "node", "id": 1372141009, "lat": 47.1623679, "lon": 8.6609122}, {"type": "node", "id": 1372141010, "lat": 47.1624608, "lon": 8.6839846}, {"type": "node", "id": 1372141011, "lat": 47.1625297, "lon": 8.6841007}, {"type": "node", "id": 1372141012, "lat": 47.1625743, "lon": 8.6870422}, {"type": "node", "id": 1372141013, "lat": 47.1626311, "lon": 8.684673}, {"type": "node", "id": 1372141014, "lat": 47.1626732, "lon": 8.6852637}, {"type": "node", "id": 1372141015, "lat": 47.1627193, "lon": 8.6887916}, {"type": "node", "id": 1372141016, "lat": 47.162849, "lon": 8.6607083}, {"type": "node", "id": 1372141017, "lat": 47.1629635, "lon": 8.6904855}, {"type": "node", "id": 1372141018, "lat": 47.1632913, "lon": 8.6916139}, {"type": "node", "id": 1372141019, "lat": 47.1633874, "lon": 8.6606216}, {"type": "node", "id": 1372141020, "lat": 47.1634006, "lon": 8.692195}, {"type": "node", "id": 1372141021, "lat": 47.1634481, "lon": 8.6921846}, {"type": "node", "id": 1372141023, "lat": 47.163946, "lon": 8.6603676}, {"type": "node", "id": 1372141024, "lat": 47.1641734, "lon": 8.6607025}, {"type": "node", "id": 1372141025, "lat": 47.1643272, "lon": 8.6607949}, {"type": "node", "id": 1372141026, "lat": 47.1644926, "lon": 8.6607134}, {"type": "node", "id": 1372141027, "lat": 47.1645178, "lon": 8.6919912}, {"type": "node", "id": 1372141028, "lat": 47.1653211, "lon": 8.6921105}, {"type": "node", "id": 1372141029, "lat": 47.1654229, "lon": 8.66094}, {"type": "node", "id": 1372141030, "lat": 47.1658193, "lon": 8.660876}, {"type": "node", "id": 1372141031, "lat": 47.1666192, "lon": 8.6608066}, {"type": "node", "id": 1372141032, "lat": 47.1667149, "lon": 8.6920489}, {"type": "node", "id": 1372141033, "lat": 47.1668211, "lon": 8.6916564}, {"type": "node", "id": 1372141034, "lat": 47.1673915, "lon": 8.6607945}, {"type": "node", "id": 1372141035, "lat": 47.1679932, "lon": 8.6610834}, {"type": "node", "id": 1372141036, "lat": 47.1682073, "lon": 8.6610944}, {"type": "node", "id": 1372141037, "lat": 47.1682102, "lon": 8.6912237}, {"type": "node", "id": 1372141038, "lat": 47.1685035, "lon": 8.6608856}, {"type": "node", "id": 1372141039, "lat": 47.1686895, "lon": 8.6607821}, {"type": "node", "id": 1372141040, "lat": 47.1687045, "lon": 8.6608596}, {"type": "node", "id": 1372141041, "lat": 47.1688759, "lon": 8.6606222}, {"type": "node", "id": 1372141042, "lat": 47.1689209, "lon": 8.6605157}, {"type": "node", "id": 1372141043, "lat": 47.1689273, "lon": 8.6417083}, {"type": "node", "id": 1372141044, "lat": 47.1689325, "lon": 8.6422161}, {"type": "node", "id": 1372141045, "lat": 47.169004, "lon": 8.6427129}, {"type": "node", "id": 1372141046, "lat": 47.1690079, "lon": 8.6411143}, {"type": "node", "id": 1372141047, "lat": 47.1690192, "lon": 8.6913483}, {"type": "node", "id": 1372141048, "lat": 47.1692561, "lon": 8.6604282}, {"type": "node", "id": 1372141049, "lat": 47.1693261, "lon": 8.6398915}, {"type": "node", "id": 1372141050, "lat": 47.16938, "lon": 8.660506}, {"type": "node", "id": 1372141051, "lat": 47.1693927, "lon": 8.6906772}, {"type": "node", "id": 1372141052, "lat": 47.1694242, "lon": 8.6396575}, {"type": "node", "id": 1372141053, "lat": 47.1695578, "lon": 8.6604343}, {"type": "node", "id": 1372141054, "lat": 47.1695705, "lon": 8.6394709}, {"type": "node", "id": 1372141055, "lat": 47.1697813, "lon": 8.6393474}, {"type": "node", "id": 1372141056, "lat": 47.1697851, "lon": 8.6605044}, {"type": "node", "id": 1372141057, "lat": 47.1698134, "lon": 8.6902038}, {"type": "node", "id": 1372141058, "lat": 47.1698416, "lon": 8.6459476}, {"type": "node", "id": 1372141059, "lat": 47.1698796, "lon": 8.6560881}, {"type": "node", "id": 1372141060, "lat": 47.1698811, "lon": 8.6556161}, {"type": "node", "id": 1372141061, "lat": 47.1699237, "lon": 8.6606377}, {"type": "node", "id": 1372141062, "lat": 47.1699334, "lon": 8.6470359}, {"type": "node", "id": 1372141063, "lat": 47.1699424, "lon": 8.6552255}, {"type": "node", "id": 1372141064, "lat": 47.1699542, "lon": 8.6565472}, {"type": "node", "id": 1372141065, "lat": 47.1700017, "lon": 8.6393401}, {"type": "node", "id": 1372141066, "lat": 47.170056, "lon": 8.6548611}, {"type": "node", "id": 1372141067, "lat": 47.1701026, "lon": 8.6896773}, {"type": "node", "id": 1372141068, "lat": 47.1701662, "lon": 8.6481267}, {"type": "node", "id": 1372141070, "lat": 47.1703432, "lon": 8.6502973}, {"type": "node", "id": 1372141071, "lat": 47.1704474, "lon": 8.6577323}, {"type": "node", "id": 1372141072, "lat": 47.1704962, "lon": 8.6508219}, {"type": "node", "id": 1372141073, "lat": 47.1705787, "lon": 8.6591236}, {"type": "node", "id": 1372141074, "lat": 47.1705926, "lon": 8.6584506}, {"type": "node", "id": 1372141075, "lat": 47.1709525, "lon": 8.6518569}, {"type": "node", "id": 1372141076, "lat": 47.1709557, "lon": 8.6529328}, {"type": "node", "id": 1372141077, "lat": 47.1709819, "lon": 8.6870616}, {"type": "node", "id": 1372141078, "lat": 47.1710293, "lon": 8.6526088}, {"type": "node", "id": 1372141079, "lat": 47.171037, "lon": 8.6522674}, {"type": "node", "id": 1372141080, "lat": 47.1710719, "lon": 8.6398036}, {"type": "node", "id": 1372141081, "lat": 47.171314, "lon": 8.6396757}, {"type": "node", "id": 1372141082, "lat": 47.1714726, "lon": 8.6393544}, {"type": "node", "id": 1372141083, "lat": 47.1715188, "lon": 8.6858723}, {"type": "node", "id": 1372141084, "lat": 47.1716071, "lon": 8.6337707}, {"type": "node", "id": 1372141085, "lat": 47.1716362, "lon": 8.6385575}, {"type": "node", "id": 1372141086, "lat": 47.1716605, "lon": 8.6334376}, {"type": "node", "id": 1372141087, "lat": 47.1717336, "lon": 8.6358177}, {"type": "node", "id": 1372141088, "lat": 47.1717432, "lon": 8.6370046}, {"type": "node", "id": 1372141089, "lat": 47.1718654, "lon": 8.632817}, {"type": "node", "id": 1372141090, "lat": 47.1718716, "lon": 8.6327984}, {"type": "node", "id": 1372141091, "lat": 47.1719947, "lon": 8.6323152}, {"type": "node", "id": 1372141092, "lat": 47.1720694, "lon": 8.628389}, {"type": "node", "id": 1372141094, "lat": 47.1721771, "lon": 8.631116}, {"type": "node", "id": 1372141095, "lat": 47.1722201, "lon": 8.6848579}, {"type": "node", "id": 1372141097, "lat": 47.1723475, "lon": 8.6260229}, {"type": "node", "id": 1372141098, "lat": 47.1725055, "lon": 8.6253545}, {"type": "node", "id": 1372141100, "lat": 47.1727403, "lon": 8.6247465}, {"type": "node", "id": 1372141101, "lat": 47.1728551, "lon": 8.6840713}, {"type": "node", "id": 1372141106, "lat": 47.1730314, "lon": 8.6242864}, {"type": "node", "id": 1372141107, "lat": 47.1733578, "lon": 8.6239808}, {"type": "node", "id": 1372141108, "lat": 47.1734958, "lon": 8.6830967}, {"type": "node", "id": 1372141109, "lat": 47.1737361, "lon": 8.682952}, {"type": "node", "id": 1372141111, "lat": 47.1738457, "lon": 8.6238235}, {"type": "node", "id": 1372141113, "lat": 47.1739656, "lon": 8.6826223}, {"type": "node", "id": 1372141114, "lat": 47.1740713, "lon": 8.6826615}, {"type": "node", "id": 1372141117, "lat": 47.1743219, "lon": 8.6823979}, {"type": "node", "id": 1372141119, "lat": 47.174479, "lon": 8.6824211}, {"type": "node", "id": 1372141123, "lat": 47.1745197, "lon": 8.6823769}, {"type": "node", "id": 1372141124, "lat": 47.1745919, "lon": 8.6239512}, {"type": "node", "id": 1372141126, "lat": 47.1747935, "lon": 8.6825945}, {"type": "node", "id": 1372141127, "lat": 47.1748363, "lon": 8.6241017}, {"type": "node", "id": 1372141132, "lat": 47.1751198, "lon": 8.682703}, {"type": "node", "id": 1372141135, "lat": 47.1753112, "lon": 8.6246032}, {"type": "node", "id": 1372141138, "lat": 47.1755168, "lon": 8.6825127}, {"type": "node", "id": 1372141139, "lat": 47.1756681, "lon": 8.6825}, {"type": "node", "id": 1372141140, "lat": 47.1757724, "lon": 8.6823106}, {"type": "node", "id": 1372141142, "lat": 47.1759048, "lon": 8.6822223}, {"type": "node", "id": 1372141144, "lat": 47.1762584, "lon": 8.6820726}, {"type": "node", "id": 1372141145, "lat": 47.1764011, "lon": 8.6821317}, {"type": "node", "id": 1372141147, "lat": 47.1765264, "lon": 8.6251046}, {"type": "node", "id": 1372141148, "lat": 47.1765461, "lon": 8.6820666}, {"type": "node", "id": 1372141149, "lat": 47.1767834, "lon": 8.6253626}, {"type": "node", "id": 1372141150, "lat": 47.1767884, "lon": 8.6817619}, {"type": "node", "id": 1372141154, "lat": 47.1770412, "lon": 8.6815557}, {"type": "node", "id": 1372141158, "lat": 47.1774379, "lon": 8.6264726}, {"type": "node", "id": 1372141161, "lat": 47.1778519, "lon": 8.6269894}, {"type": "node", "id": 1372141162, "lat": 47.1779302, "lon": 8.6811545}, {"type": "node", "id": 1372141163, "lat": 47.178684, "lon": 8.6804323}, {"type": "node", "id": 1372141164, "lat": 47.1789785, "lon": 8.628039}, {"type": "node", "id": 1372141165, "lat": 47.1789911, "lon": 8.6803545}, {"type": "node", "id": 1372141169, "lat": 47.1792337, "lon": 8.6281526}, {"type": "node", "id": 1372141171, "lat": 47.1794998, "lon": 8.6281061}, {"type": "node", "id": 1372141172, "lat": 47.17973, "lon": 8.6279836}, {"type": "node", "id": 1372141173, "lat": 47.1798877, "lon": 8.6804029}, {"type": "node", "id": 1372141175, "lat": 47.1804638, "lon": 8.6264366}, {"type": "node", "id": 1372141177, "lat": 47.1810485, "lon": 8.6259053}, {"type": "node", "id": 1372141180, "lat": 47.1816033, "lon": 8.6813311}, {"type": "node", "id": 1372141181, "lat": 47.1817877, "lon": 8.6258155}, {"type": "node", "id": 1372141186, "lat": 47.1822106, "lon": 8.6255851}, {"type": "node", "id": 1372141190, "lat": 47.1825518, "lon": 8.6812245}, {"type": "node", "id": 1372141214, "lat": 47.1837198, "lon": 8.6810954}, {"type": "node", "id": 1372141218, "lat": 47.1839919, "lon": 8.6239443}, {"type": "node", "id": 1372141220, "lat": 47.1840723, "lon": 8.6810636}, {"type": "node", "id": 1372141236, "lat": 47.1850335, "lon": 8.6821868}, {"type": "node", "id": 1372141240, "lat": 47.1858873, "lon": 8.6835246}, {"type": "node", "id": 1372141242, "lat": 47.1862083, "lon": 8.6843003}, {"type": "node", "id": 1372141243, "lat": 47.186253, "lon": 8.6220496}, {"type": "node", "id": 1372141244, "lat": 47.186545, "lon": 8.6855573}, {"type": "node", "id": 1372141256, "lat": 47.1877462, "lon": 8.62063}, {"type": "node", "id": 1372141257, "lat": 47.1881079, "lon": 8.620485}, {"type": "node", "id": 1372141259, "lat": 47.188523, "lon": 8.6876075}, {"type": "node", "id": 1372141260, "lat": 47.1885944, "lon": 8.6204957}, {"type": "node", "id": 1372141262, "lat": 47.1890584, "lon": 8.6206003}, {"type": "node", "id": 1372141264, "lat": 47.1899209, "lon": 8.6209712}, {"type": "node", "id": 1372141265, "lat": 47.1901471, "lon": 8.6209865}, {"type": "node", "id": 1372141267, "lat": 47.1903461, "lon": 8.6208884}, {"type": "node", "id": 1372141268, "lat": 47.1904848, "lon": 8.6207215}, {"type": "node", "id": 1372141269, "lat": 47.1907696, "lon": 8.6201754}, {"type": "node", "id": 1372141271, "lat": 47.1912229, "lon": 8.6189944}, {"type": "node", "id": 1372141273, "lat": 47.1917729, "lon": 8.6183183}, {"type": "node", "id": 1372141274, "lat": 47.1920129, "lon": 8.6176826}, {"type": "node", "id": 1372141275, "lat": 47.1922804, "lon": 8.6173989}, {"type": "node", "id": 1372141276, "lat": 47.1925249, "lon": 8.6173028}, {"type": "node", "id": 1372141278, "lat": 47.192785, "lon": 8.6173259}, {"type": "node", "id": 1372141281, "lat": 47.1938917, "lon": 8.618114}, {"type": "node", "id": 1372141283, "lat": 47.1942177, "lon": 8.618204}, {"type": "node", "id": 1372141285, "lat": 47.1945483, "lon": 8.618166}, {"type": "node", "id": 1372141286, "lat": 47.1949915, "lon": 8.617889}, {"type": "node", "id": 1372141290, "lat": 47.1956303, "lon": 8.6171004}, {"type": "node", "id": 1372141293, "lat": 47.196359, "lon": 8.6941823}, {"type": "node", "id": 1372141294, "lat": 47.19636, "lon": 8.6944292}, {"type": "node", "id": 1372141295, "lat": 47.1964848, "lon": 8.6946339}, {"type": "node", "id": 1372141296, "lat": 47.1965735, "lon": 8.6970857}, {"type": "node", "id": 1372141297, "lat": 47.1965784, "lon": 8.6954209}, {"type": "node", "id": 1372141298, "lat": 47.1965935, "lon": 8.69787}, {"type": "node", "id": 1372141299, "lat": 47.1966397, "lon": 8.6963354}, {"type": "node", "id": 1372141300, "lat": 47.1966472, "lon": 8.6968407}, {"type": "node", "id": 1372141301, "lat": 47.1966696, "lon": 8.6974177}, {"type": "node", "id": 1372141302, "lat": 47.1967219, "lon": 8.6958825}, {"type": "node", "id": 1372141303, "lat": 47.1967222, "lon": 8.6163115}, {"type": "node", "id": 1372141304, "lat": 47.1967466, "lon": 8.6984082}, {"type": "node", "id": 1372141305, "lat": 47.1967654, "lon": 8.6981295}, {"type": "node", "id": 1372141306, "lat": 47.1968424, "lon": 8.6985425}, {"type": "node", "id": 1372141308, "lat": 47.1969584, "lon": 8.6993586}, {"type": "node", "id": 1372141309, "lat": 47.1969991, "lon": 8.6990842}, {"type": "node", "id": 1372141310, "lat": 47.1970255, "lon": 8.6996117}, {"type": "node", "id": 1372141312, "lat": 47.1971998, "lon": 8.6998366}, {"type": "node", "id": 1372141313, "lat": 47.1972218, "lon": 8.7001114}, {"type": "node", "id": 1372141314, "lat": 47.1974331, "lon": 8.7009981}, {"type": "node", "id": 1372141315, "lat": 47.1974459, "lon": 8.6159562}, {"type": "node", "id": 1372141316, "lat": 47.1975217, "lon": 8.7006389}, {"type": "node", "id": 1372141317, "lat": 47.1975308, "lon": 8.7011105}, {"type": "node", "id": 1372141319, "lat": 47.1976456, "lon": 8.7013791}, {"type": "node", "id": 1372141320, "lat": 47.1977714, "lon": 8.701487}, {"type": "node", "id": 1372141321, "lat": 47.1977896, "lon": 8.7018404}, {"type": "node", "id": 1372141322, "lat": 47.1979631, "lon": 8.7023301}, {"type": "node", "id": 1372141323, "lat": 47.1981022, "lon": 8.7025522}, {"type": "node", "id": 1372141324, "lat": 47.1983416, "lon": 8.7027146}, {"type": "node", "id": 1372141325, "lat": 47.1984583, "lon": 8.702908}, {"type": "node", "id": 1372141327, "lat": 47.1986164, "lon": 8.6157158}, {"type": "node", "id": 1372141328, "lat": 47.1987168, "lon": 8.7028575}, {"type": "node", "id": 1372141329, "lat": 47.1988881, "lon": 8.703085}, {"type": "node", "id": 1372141330, "lat": 47.1989149, "lon": 8.7032027}, {"type": "node", "id": 1372141331, "lat": 47.1989288, "lon": 8.6155291}, {"type": "node", "id": 1372141333, "lat": 47.1991319, "lon": 8.7033907}, {"type": "node", "id": 1372141334, "lat": 47.199338, "lon": 8.6151647}, {"type": "node", "id": 1372141335, "lat": 47.1993406, "lon": 8.6151626}, {"type": "node", "id": 1372141336, "lat": 47.199406, "lon": 8.7029507}, {"type": "node", "id": 1372141339, "lat": 47.1995116, "lon": 8.6149032}, {"type": "node", "id": 1372141341, "lat": 47.1996725, "lon": 8.7028801}, {"type": "node", "id": 1372141342, "lat": 47.1997223, "lon": 8.7027978}, {"type": "node", "id": 1372141345, "lat": 47.1998625, "lon": 8.6145453}, {"type": "node", "id": 1372141346, "lat": 47.2000795, "lon": 8.6140855}, {"type": "node", "id": 1372141349, "lat": 47.2002584, "lon": 8.7030386}, {"type": "node", "id": 1372141351, "lat": 47.2004229, "lon": 8.7100884}, {"type": "node", "id": 1372141353, "lat": 47.2004437, "lon": 8.6134837}, {"type": "node", "id": 1372141354, "lat": 47.2005636, "lon": 8.6133676}, {"type": "node", "id": 1372141356, "lat": 47.200652, "lon": 8.7027462}, {"type": "node", "id": 1372141358, "lat": 47.2007527, "lon": 8.7087588}, {"type": "node", "id": 1372141359, "lat": 47.200757, "lon": 8.7027524}, {"type": "node", "id": 1372141360, "lat": 47.2008179, "lon": 8.7088027}, {"type": "node", "id": 1372141366, "lat": 47.2008712, "lon": 8.7106528}, {"type": "node", "id": 1372141368, "lat": 47.2009486, "lon": 8.7029423}, {"type": "node", "id": 1372141370, "lat": 47.2009508, "lon": 8.7082518}, {"type": "node", "id": 1372141372, "lat": 47.2009627, "lon": 8.7103531}, {"type": "node", "id": 1372141373, "lat": 47.2010487, "lon": 8.710895}, {"type": "node", "id": 1372141374, "lat": 47.2010585, "lon": 8.6131818}, {"type": "node", "id": 1372141378, "lat": 47.2012366, "lon": 8.6130009}, {"type": "node", "id": 1372141384, "lat": 47.2013384, "lon": 8.711149}, {"type": "node", "id": 1372141387, "lat": 47.2014269, "lon": 8.5993855}, {"type": "node", "id": 1372141388, "lat": 47.201431, "lon": 8.5990227}, {"type": "node", "id": 1372141389, "lat": 47.2014428, "lon": 8.7114124}, {"type": "node", "id": 1372141391, "lat": 47.201511, "lon": 8.7029008}, {"type": "node", "id": 1372141392, "lat": 47.2015698, "lon": 8.6000229}, {"type": "node", "id": 1372141393, "lat": 47.2015807, "lon": 8.5985798}, {"type": "node", "id": 1372141394, "lat": 47.2016283, "lon": 8.7069677}, {"type": "node", "id": 1372141396, "lat": 47.201679, "lon": 8.7030689}, {"type": "node", "id": 1372141397, "lat": 47.2017442, "lon": 8.7036544}, {"type": "node", "id": 1372141398, "lat": 47.2017737, "lon": 8.598351}, {"type": "node", "id": 1372141401, "lat": 47.2018634, "lon": 8.6129381}, {"type": "node", "id": 1372141404, "lat": 47.2019413, "lon": 8.7064886}, {"type": "node", "id": 1372141405, "lat": 47.2019472, "lon": 8.7118817}, {"type": "node", "id": 1372141406, "lat": 47.2019983, "lon": 8.5982047}, {"type": "node", "id": 1372141407, "lat": 47.2020019, "lon": 8.6128012}, {"type": "node", "id": 1372141411, "lat": 47.2021298, "lon": 8.7119736}, {"type": "node", "id": 1372141413, "lat": 47.202187, "lon": 8.7063256}, {"type": "node", "id": 1372141415, "lat": 47.202238, "lon": 8.6124553}, {"type": "node", "id": 1372141417, "lat": 47.2022586, "lon": 8.712198}, {"type": "node", "id": 1372141419, "lat": 47.2022967, "lon": 8.7061375}, {"type": "node", "id": 1372141420, "lat": 47.2023023, "lon": 8.7040423}, {"type": "node", "id": 1372141422, "lat": 47.202503, "lon": 8.7051138}, {"type": "node", "id": 1372141425, "lat": 47.2026822, "lon": 8.6107966}, {"type": "node", "id": 1372141426, "lat": 47.2027099, "lon": 8.5979331}, {"type": "node", "id": 1372141427, "lat": 47.202784, "lon": 8.6019559}, {"type": "node", "id": 1372141428, "lat": 47.2028322, "lon": 8.5975807}, {"type": "node", "id": 1372141429, "lat": 47.2028671, "lon": 8.7127766}, {"type": "node", "id": 1372141430, "lat": 47.2028694, "lon": 8.6021877}, {"type": "node", "id": 1372141431, "lat": 47.2029285, "lon": 8.5974362}, {"type": "node", "id": 1372141433, "lat": 47.2029903, "lon": 8.603054}, {"type": "node", "id": 1372141434, "lat": 47.2029913, "lon": 8.610216}, {"type": "node", "id": 1372141436, "lat": 47.2030372, "lon": 8.7130983}, {"type": "node", "id": 1372141437, "lat": 47.2030382, "lon": 8.6031501}, {"type": "node", "id": 1372141438, "lat": 47.203144, "lon": 8.6033226}, {"type": "node", "id": 1372141440, "lat": 47.2034458, "lon": 8.6096597}, {"type": "node", "id": 1372141442, "lat": 47.203538, "lon": 8.7170103}, {"type": "node", "id": 1372141447, "lat": 47.2036937, "lon": 8.596806}, {"type": "node", "id": 1372141455, "lat": 47.2040517, "lon": 8.6043799}, {"type": "node", "id": 1372141457, "lat": 47.2041453, "lon": 8.609254}, {"type": "node", "id": 1372141458, "lat": 47.2042472, "lon": 8.5965065}, {"type": "node", "id": 1372141464, "lat": 47.2044377, "lon": 8.6088948}, {"type": "node", "id": 1372141467, "lat": 47.2045832, "lon": 8.6082129}, {"type": "node", "id": 1372141468, "lat": 47.2046589, "lon": 8.6048301}, {"type": "node", "id": 1372141472, "lat": 47.2047353, "lon": 8.6078492}, {"type": "node", "id": 1372141474, "lat": 47.2048909, "lon": 8.5963285}, {"type": "node", "id": 1372141476, "lat": 47.2049224, "lon": 8.6051051}, {"type": "node", "id": 1372141479, "lat": 47.2049856, "lon": 8.7212411}, {"type": "node", "id": 1372141481, "lat": 47.2051348, "lon": 8.6055387}, {"type": "node", "id": 1372141482, "lat": 47.2052421, "lon": 8.6060413}, {"type": "node", "id": 1372141483, "lat": 47.2052848, "lon": 8.5963772}, {"type": "node", "id": 1372141485, "lat": 47.2054898, "lon": 8.596619}, {"type": "node", "id": 1372141487, "lat": 47.2054997, "lon": 8.5970178}, {"type": "node", "id": 1372141490, "lat": 47.2055717, "lon": 8.5971952}, {"type": "node", "id": 1372141493, "lat": 47.205718, "lon": 8.5973547}, {"type": "node", "id": 1372141495, "lat": 47.2061194, "lon": 8.5972926}, {"type": "node", "id": 1372141503, "lat": 47.2068174, "lon": 8.5965866}, {"type": "node", "id": 1372141509, "lat": 47.20719, "lon": 8.5966574}, {"type": "node", "id": 1372141527, "lat": 47.2082536, "lon": 8.5975569}, {"type": "node", "id": 1372141541, "lat": 47.2084484, "lon": 8.4838243}, {"type": "node", "id": 1372141542, "lat": 47.2084542, "lon": 8.4836483}, {"type": "node", "id": 1372141544, "lat": 47.2085254, "lon": 8.4732967}, {"type": "node", "id": 1372141545, "lat": 47.2085527, "lon": 8.5976862}, {"type": "node", "id": 1372141546, "lat": 47.2085867, "lon": 8.4799759}, {"type": "node", "id": 1372141548, "lat": 47.2086217, "lon": 8.4798975}, {"type": "node", "id": 1372141549, "lat": 47.2086454, "lon": 8.4813533}, {"type": "node", "id": 1372141551, "lat": 47.2087224, "lon": 8.4806746}, {"type": "node", "id": 1372141552, "lat": 47.208774, "lon": 8.4740142}, {"type": "node", "id": 1372141553, "lat": 47.2087827, "lon": 8.4834066}, {"type": "node", "id": 1372141555, "lat": 47.2089287, "lon": 8.4751556}, {"type": "node", "id": 1372141557, "lat": 47.2089449, "lon": 8.5976923}, {"type": "node", "id": 1372141559, "lat": 47.209002, "lon": 8.4729038}, {"type": "node", "id": 1372141563, "lat": 47.2090431, "lon": 8.4854573}, {"type": "node", "id": 1372141566, "lat": 47.2092893, "lon": 8.5974342}, {"type": "node", "id": 1372141567, "lat": 47.2093187, "lon": 8.4772105}, {"type": "node", "id": 1372141568, "lat": 47.2093808, "lon": 8.4772636}, {"type": "node", "id": 1372141571, "lat": 47.2094884, "lon": 8.4726199}, {"type": "node", "id": 1372141573, "lat": 47.2096019, "lon": 8.4755331}, {"type": "node", "id": 1372141574, "lat": 47.2096253, "lon": 8.4726464}, {"type": "node", "id": 1372141575, "lat": 47.2096441, "lon": 8.5967369}, {"type": "node", "id": 1372141577, "lat": 47.2097328, "lon": 8.4730336}, {"type": "node", "id": 1372141579, "lat": 47.2099123, "lon": 8.5963256}, {"type": "node", "id": 1372141596, "lat": 47.2100215, "lon": 8.4762199}, {"type": "node", "id": 1372141605, "lat": 47.2101898, "lon": 8.4728795}, {"type": "node", "id": 1372141607, "lat": 47.2104069, "lon": 8.4882192}, {"type": "node", "id": 1372141609, "lat": 47.2104762, "lon": 8.5833888}, {"type": "node", "id": 1372141610, "lat": 47.2105168, "lon": 8.5829406}, {"type": "node", "id": 1372141611, "lat": 47.2105364, "lon": 8.5957595}, {"type": "node", "id": 1372141615, "lat": 47.2106137, "lon": 8.5846485}, {"type": "node", "id": 1372141617, "lat": 47.2106232, "lon": 8.7377214}, {"type": "node", "id": 1372141619, "lat": 47.2106244, "lon": 8.4738357}, {"type": "node", "id": 1372141628, "lat": 47.2106697, "lon": 8.5825604}, {"type": "node", "id": 1372141629, "lat": 47.2107832, "lon": 8.4735483}, {"type": "node", "id": 1372141630, "lat": 47.2107897, "lon": 8.4891008}, {"type": "node", "id": 1372141632, "lat": 47.2108073, "lon": 8.5854032}, {"type": "node", "id": 1372141635, "lat": 47.2108138, "lon": 8.4891319}, {"type": "node", "id": 1372141652, "lat": 47.2108648, "lon": 8.5823311}, {"type": "node", "id": 1372141655, "lat": 47.2108805, "lon": 8.4892994}, {"type": "node", "id": 1372141659, "lat": 47.210999, "lon": 8.5858463}, {"type": "node", "id": 1372141662, "lat": 47.2110728, "lon": 8.4906053}, {"type": "node", "id": 1372141664, "lat": 47.2110999, "lon": 8.5822063}, {"type": "node", "id": 1372141667, "lat": 47.2111938, "lon": 8.5953302}, {"type": "node", "id": 1372141671, "lat": 47.2112372, "lon": 8.5862389}, {"type": "node", "id": 1372141677, "lat": 47.211375, "lon": 8.4917508}, {"type": "node", "id": 1372141680, "lat": 47.2115264, "lon": 8.5913716}, {"type": "node", "id": 1372141682, "lat": 47.2116423, "lon": 8.740677}, {"type": "node", "id": 1372141683, "lat": 47.2116488, "lon": 8.5867194}, {"type": "node", "id": 1372141684, "lat": 47.211671, "lon": 8.5948362}, {"type": "node", "id": 1372141686, "lat": 47.2116821, "lon": 8.5920252}, {"type": "node", "id": 1372141694, "lat": 47.2116957, "lon": 8.472468}, {"type": "node", "id": 1372141696, "lat": 47.2118055, "lon": 8.5900337}, {"type": "node", "id": 1372141697, "lat": 47.2118107, "lon": 8.4722565}, {"type": "node", "id": 1372141698, "lat": 47.2118351, "lon": 8.5012732}, {"type": "node", "id": 1372141701, "lat": 47.2118429, "lon": 8.4927541}, {"type": "node", "id": 1372141703, "lat": 47.2118652, "lon": 8.5003075}, {"type": "node", "id": 1372141705, "lat": 47.2118847, "lon": 8.5018188}, {"type": "node", "id": 1372141707, "lat": 47.2118957, "lon": 8.7421354}, {"type": "node", "id": 1372141711, "lat": 47.2118959, "lon": 8.494644}, {"type": "node", "id": 1372141712, "lat": 47.2119147, "lon": 8.5944917}, {"type": "node", "id": 1372141713, "lat": 47.2119208, "lon": 8.4930475}, {"type": "node", "id": 1372141714, "lat": 47.2119232, "lon": 8.4704131}, {"type": "node", "id": 1372141715, "lat": 47.2119252, "lon": 8.4719273}, {"type": "node", "id": 1372141716, "lat": 47.2119369, "lon": 8.495361}, {"type": "node", "id": 1372141718, "lat": 47.211949, "lon": 8.4937492}, {"type": "node", "id": 1372141720, "lat": 47.2120023, "lon": 8.4715021}, {"type": "node", "id": 1372141721, "lat": 47.2120154, "lon": 8.4988491}, {"type": "node", "id": 1372141722, "lat": 47.2120538, "lon": 8.5941607}, {"type": "node", "id": 1372141723, "lat": 47.2120671, "lon": 8.5931959}, {"type": "node", "id": 1372141724, "lat": 47.2120696, "lon": 8.4983943}, {"type": "node", "id": 1372141725, "lat": 47.2121195, "lon": 8.5936248}, {"type": "node", "id": 1372141726, "lat": 47.2121352, "lon": 8.5871077}, {"type": "node", "id": 1372141729, "lat": 47.2122279, "lon": 8.5821221}, {"type": "node", "id": 1372141730, "lat": 47.2122402, "lon": 8.5033136}, {"type": "node", "id": 1372141732, "lat": 47.2122686, "lon": 8.4973808}, {"type": "node", "id": 1372141733, "lat": 47.2123482, "lon": 8.4981122}, {"type": "node", "id": 1372141737, "lat": 47.2123871, "lon": 8.5031937}, {"type": "node", "id": 1372141738, "lat": 47.2124238, "lon": 8.5874798}, {"type": "node", "id": 1372141739, "lat": 47.2124612, "lon": 8.5889231}, {"type": "node", "id": 1372141741, "lat": 47.2125701, "lon": 8.5878798}, {"type": "node", "id": 1372141742, "lat": 47.2125787, "lon": 8.5038415}, {"type": "node", "id": 1372141744, "lat": 47.2126088, "lon": 8.5882371}, {"type": "node", "id": 1372141746, "lat": 47.2127019, "lon": 8.5819983}, {"type": "node", "id": 1372141749, "lat": 47.2128008, "lon": 8.5042203}, {"type": "node", "id": 1372141757, "lat": 47.2129558, "lon": 8.468311}, {"type": "node", "id": 1372141763, "lat": 47.2131533, "lon": 8.5817529}, {"type": "node", "id": 1372141765, "lat": 47.2131738, "lon": 8.5046074}, {"type": "node", "id": 1372141767, "lat": 47.2132377, "lon": 8.4688632}, {"type": "node", "id": 1372141771, "lat": 47.2134045, "lon": 8.4700905}, {"type": "node", "id": 1372141773, "lat": 47.2135336, "lon": 8.5051996}, {"type": "node", "id": 1372141774, "lat": 47.2136011, "lon": 8.4619954}, {"type": "node", "id": 1372141775, "lat": 47.2136312, "lon": 8.4614031}, {"type": "node", "id": 1372141777, "lat": 47.213776, "lon": 8.5057977}, {"type": "node", "id": 1372141778, "lat": 47.213779, "lon": 8.4625509}, {"type": "node", "id": 1372141780, "lat": 47.213858, "lon": 8.5058863}, {"type": "node", "id": 1372141781, "lat": 47.2138715, "lon": 8.4636574}, {"type": "node", "id": 1372141782, "lat": 47.2138854, "lon": 8.4613343}, {"type": "node", "id": 1372141783, "lat": 47.2139108, "lon": 8.4632312}, {"type": "node", "id": 1372141784, "lat": 47.2139231, "lon": 8.5811402}, {"type": "node", "id": 1372141786, "lat": 47.2139426, "lon": 8.4636466}, {"type": "node", "id": 1372141787, "lat": 47.213988, "lon": 8.4655243}, {"type": "node", "id": 1372141788, "lat": 47.2140914, "lon": 8.4661542}, {"type": "node", "id": 1372141791, "lat": 47.2142057, "lon": 8.4670642}, {"type": "node", "id": 1372141793, "lat": 47.2142353, "lon": 8.5810266}, {"type": "node", "id": 1372141795, "lat": 47.2142802, "lon": 8.4609596}, {"type": "node", "id": 1372141796, "lat": 47.2142867, "lon": 8.4669192}, {"type": "node", "id": 1372141799, "lat": 47.2143785, "lon": 8.5072997}, {"type": "node", "id": 1372141804, "lat": 47.2145568, "lon": 8.5810128}, {"type": "node", "id": 1372141805, "lat": 47.2146108, "lon": 8.5079521}, {"type": "node", "id": 1372141809, "lat": 47.214758, "lon": 8.5050557}, {"type": "node", "id": 1372141810, "lat": 47.2147717, "lon": 8.5050978}, {"type": "node", "id": 1372141813, "lat": 47.2149206, "lon": 8.5085783}, {"type": "node", "id": 1372141814, "lat": 47.214952, "lon": 8.5811377}, {"type": "node", "id": 1372141815, "lat": 47.2149688, "lon": 8.5094097}, {"type": "node", "id": 1372141817, "lat": 47.2150523, "lon": 8.5091335}, {"type": "node", "id": 1372141820, "lat": 47.2153017, "lon": 8.5814036}, {"type": "node", "id": 1372141821, "lat": 47.2153261, "lon": 8.4604237}, {"type": "node", "id": 1372141825, "lat": 47.215514, "lon": 8.5116083}, {"type": "node", "id": 1372141826, "lat": 47.2155191, "lon": 8.5123322}, {"type": "node", "id": 1372141828, "lat": 47.2156986, "lon": 8.5104026}, {"type": "node", "id": 1372141831, "lat": 47.2159768, "lon": 8.4597022}, {"type": "node", "id": 1372141837, "lat": 47.2163316, "lon": 8.512684}, {"type": "node", "id": 1372141839, "lat": 47.216541, "lon": 8.5128279}, {"type": "node", "id": 1372141841, "lat": 47.2166382, "lon": 8.5126006}, {"type": "node", "id": 1372141845, "lat": 47.2168275, "lon": 8.5833397}, {"type": "node", "id": 1372141846, "lat": 47.2168984, "lon": 8.5126608}, {"type": "node", "id": 1372141849, "lat": 47.2170022, "lon": 8.4586975}, {"type": "node", "id": 1372141850, "lat": 47.2170082, "lon": 8.5747217}, {"type": "node", "id": 1372141851, "lat": 47.2170175, "lon": 8.5744763}, {"type": "node", "id": 1372141852, "lat": 47.2170611, "lon": 8.4583171}, {"type": "node", "id": 1372141853, "lat": 47.2170683, "lon": 8.5743632}, {"type": "node", "id": 1372141854, "lat": 47.2170845, "lon": 8.5127797}, {"type": "node", "id": 1372141856, "lat": 47.2171664, "lon": 8.5834765}, {"type": "node", "id": 1372141857, "lat": 47.2171821, "lon": 8.5743049}, {"type": "node", "id": 1372141859, "lat": 47.2171982, "lon": 8.5757032}, {"type": "node", "id": 1372141861, "lat": 47.2172827, "lon": 8.4578225}, {"type": "node", "id": 1372141862, "lat": 47.2173083, "lon": 8.5761125}, {"type": "node", "id": 1372141864, "lat": 47.2175067, "lon": 8.5797203}, {"type": "node", "id": 1372141865, "lat": 47.217511, "lon": 8.5833747}, {"type": "node", "id": 1372141866, "lat": 47.2175215, "lon": 8.5743871}, {"type": "node", "id": 1372141867, "lat": 47.2175242, "lon": 8.5765741}, {"type": "node", "id": 1372141868, "lat": 47.2175318, "lon": 8.5804559}, {"type": "node", "id": 1372141870, "lat": 47.2175628, "lon": 8.5310795}, {"type": "node", "id": 1372141871, "lat": 47.2175657, "lon": 8.5309593}, {"type": "node", "id": 1372141872, "lat": 47.2175665, "lon": 8.5765454}, {"type": "node", "id": 1372141874, "lat": 47.2175876, "lon": 8.5789935}, {"type": "node", "id": 1372141875, "lat": 47.2176319, "lon": 8.5743532}, {"type": "node", "id": 1372141876, "lat": 47.2176436, "lon": 8.5810964}, {"type": "node", "id": 1372141877, "lat": 47.2176473, "lon": 8.5767123}, {"type": "node", "id": 1372141879, "lat": 47.2176592, "lon": 8.5311423}, {"type": "node", "id": 1372141880, "lat": 47.2176891, "lon": 8.5832065}, {"type": "node", "id": 1372141881, "lat": 47.2177047, "lon": 8.457252}, {"type": "node", "id": 1372141882, "lat": 47.2177076, "lon": 8.5306399}, {"type": "node", "id": 1372141883, "lat": 47.2177137, "lon": 8.5302419}, {"type": "node", "id": 1372141884, "lat": 47.2177167, "lon": 8.57424}, {"type": "node", "id": 1372141885, "lat": 47.2177528, "lon": 8.5301269}, {"type": "node", "id": 1372141886, "lat": 47.2177609, "lon": 8.4529458}, {"type": "node", "id": 1372141887, "lat": 47.2177706, "lon": 8.5783078}, {"type": "node", "id": 1372141888, "lat": 47.2178088, "lon": 8.5766688}, {"type": "node", "id": 1372141890, "lat": 47.2178283, "lon": 8.5829732}, {"type": "node", "id": 1372141891, "lat": 47.2178393, "lon": 8.5315098}, {"type": "node", "id": 1372141892, "lat": 47.2178638, "lon": 8.5767844}, {"type": "node", "id": 1372141893, "lat": 47.2179087, "lon": 8.5301136}, {"type": "node", "id": 1372141894, "lat": 47.2179174, "lon": 8.582027}, {"type": "node", "id": 1372141895, "lat": 47.2179184, "lon": 8.5826926}, {"type": "node", "id": 1372141896, "lat": 47.2179471, "lon": 8.5736457}, {"type": "node", "id": 1372141897, "lat": 47.2179524, "lon": 8.5823865}, {"type": "node", "id": 1372141900, "lat": 47.2180009, "lon": 8.4523083}, {"type": "node", "id": 1372141903, "lat": 47.218037, "lon": 8.5777163}, {"type": "node", "id": 1372141904, "lat": 47.2180605, "lon": 8.5315725}, {"type": "node", "id": 1372141905, "lat": 47.2181433, "lon": 8.5299877}, {"type": "node", "id": 1372141908, "lat": 47.2182347, "lon": 8.4549261}, {"type": "node", "id": 1372141910, "lat": 47.2182642, "lon": 8.529619}, {"type": "node", "id": 1372141911, "lat": 47.2182695, "lon": 8.5318901}, {"type": "node", "id": 1372141912, "lat": 47.2182952, "lon": 8.5731135}, {"type": "node", "id": 1372141913, "lat": 47.218324, "lon": 8.5292415}, {"type": "node", "id": 1372141914, "lat": 47.2183372, "lon": 8.5773455}, {"type": "node", "id": 1372141916, "lat": 47.2183765, "lon": 8.4516331}, {"type": "node", "id": 1372141918, "lat": 47.2183849, "lon": 8.5728397}, {"type": "node", "id": 1372141919, "lat": 47.218385, "lon": 8.5699419}, {"type": "node", "id": 1372141920, "lat": 47.2183946, "lon": 8.4559761}, {"type": "node", "id": 1372141923, "lat": 47.2184343, "lon": 8.4523349}, {"type": "node", "id": 1372141924, "lat": 47.2184833, "lon": 8.456128}, {"type": "node", "id": 1372141925, "lat": 47.2184879, "lon": 8.5676373}, {"type": "node", "id": 1372141926, "lat": 47.2185078, "lon": 8.5712596}, {"type": "node", "id": 1372141928, "lat": 47.2185238, "lon": 8.5671349}, {"type": "node", "id": 1372141929, "lat": 47.2185253, "lon": 8.5684961}, {"type": "node", "id": 1372141930, "lat": 47.2185377, "lon": 8.5285419}, {"type": "node", "id": 1372141931, "lat": 47.2185429, "lon": 8.4556361}, {"type": "node", "id": 1372141932, "lat": 47.2185704, "lon": 8.5287971}, {"type": "node", "id": 1372141933, "lat": 47.2185719, "lon": 8.4566781}, {"type": "node", "id": 1372141934, "lat": 47.2185752, "lon": 8.5259327}, {"type": "node", "id": 1372141935, "lat": 47.2185818, "lon": 8.5272896}, {"type": "node", "id": 1372141936, "lat": 47.2185903, "lon": 8.5262385}, {"type": "node", "id": 1372141939, "lat": 47.2186218, "lon": 8.5282023}, {"type": "node", "id": 1372141940, "lat": 47.2186283, "lon": 8.5260947}, {"type": "node", "id": 1372141941, "lat": 47.2186286, "lon": 8.5272094}, {"type": "node", "id": 1372141942, "lat": 47.2186289, "lon": 8.5270319}, {"type": "node", "id": 1372141944, "lat": 47.2186334, "lon": 8.4530336}, {"type": "node", "id": 1372141945, "lat": 47.2186555, "lon": 8.5258645}, {"type": "node", "id": 1372141946, "lat": 47.2186587, "lon": 8.5124281}, {"type": "node", "id": 1372141947, "lat": 47.2186605, "lon": 8.577169}, {"type": "node", "id": 1372141948, "lat": 47.2186797, "lon": 8.5667168}, {"type": "node", "id": 1372141950, "lat": 47.2187111, "lon": 8.576827}, {"type": "node", "id": 1372141951, "lat": 47.2187113, "lon": 8.5267049}, {"type": "node", "id": 1372141952, "lat": 47.2187158, "lon": 8.5231176}, {"type": "node", "id": 1372141953, "lat": 47.218722, "lon": 8.5253809}, {"type": "node", "id": 1372141954, "lat": 47.2187225, "lon": 8.5242675}, {"type": "node", "id": 1372141955, "lat": 47.2187363, "lon": 8.576657}, {"type": "node", "id": 1372141956, "lat": 47.2187416, "lon": 8.5252211}, {"type": "node", "id": 1372141957, "lat": 47.2187457, "lon": 8.5232131}, {"type": "node", "id": 1372141958, "lat": 47.2187532, "lon": 8.5239221}, {"type": "node", "id": 1372141960, "lat": 47.2187714, "lon": 8.5241245}, {"type": "node", "id": 1372141961, "lat": 47.2187821, "lon": 8.5238342}, {"type": "node", "id": 1372141962, "lat": 47.2188097, "lon": 8.5258638}, {"type": "node", "id": 1372141963, "lat": 47.2188263, "lon": 8.5225043}, {"type": "node", "id": 1372141964, "lat": 47.2188325, "lon": 8.5235164}, {"type": "node", "id": 1372141965, "lat": 47.2188399, "lon": 8.5231618}, {"type": "node", "id": 1372141966, "lat": 47.2188454, "lon": 8.5248265}, {"type": "node", "id": 1372141967, "lat": 47.2188484, "lon": 8.7771871}, {"type": "node", "id": 1372141968, "lat": 47.2188501, "lon": 8.5771826}, {"type": "node", "id": 1372141969, "lat": 47.2188502, "lon": 8.5250631}, {"type": "node", "id": 1372141971, "lat": 47.2188769, "lon": 8.525764}, {"type": "node", "id": 1372141973, "lat": 47.2188795, "lon": 8.5238288}, {"type": "node", "id": 1372141976, "lat": 47.2188946, "lon": 8.5228706}, {"type": "node", "id": 1372141977, "lat": 47.2189009, "lon": 8.523698}, {"type": "node", "id": 1372141980, "lat": 47.2189215, "lon": 8.5224124}, {"type": "node", "id": 1372141984, "lat": 47.2189496, "lon": 8.5220168}, {"type": "node", "id": 1372141985, "lat": 47.2189686, "lon": 8.5662538}, {"type": "node", "id": 1372141986, "lat": 47.2190146, "lon": 8.5219116}, {"type": "node", "id": 1372141987, "lat": 47.2190344, "lon": 8.5772835}, {"type": "node", "id": 1372141988, "lat": 47.2190733, "lon": 8.565755}, {"type": "node", "id": 1372141990, "lat": 47.2190931, "lon": 8.5316818}, {"type": "node", "id": 1372141991, "lat": 47.2191059, "lon": 8.5657734}, {"type": "node", "id": 1372141992, "lat": 47.2191506, "lon": 8.5317554}, {"type": "node", "id": 1372141994, "lat": 47.2191858, "lon": 8.5774588}, {"type": "node", "id": 1372141996, "lat": 47.2192779, "lon": 8.5317472}, {"type": "node", "id": 1372141997, "lat": 47.2192968, "lon": 8.577702}, {"type": "node", "id": 1372141999, "lat": 47.2193257, "lon": 8.5217539}, {"type": "node", "id": 1372142000, "lat": 47.2193273, "lon": 8.5206348}, {"type": "node", "id": 1372142001, "lat": 47.2193317, "lon": 8.5795009}, {"type": "node", "id": 1372142002, "lat": 47.2193398, "lon": 8.5318185}, {"type": "node", "id": 1372142003, "lat": 47.2193542, "lon": 8.5780621}, {"type": "node", "id": 1372142004, "lat": 47.219411, "lon": 8.5797994}, {"type": "node", "id": 1372142005, "lat": 47.2194149, "lon": 8.5125639}, {"type": "node", "id": 1372142006, "lat": 47.2194171, "lon": 8.5317798}, {"type": "node", "id": 1372142007, "lat": 47.2194669, "lon": 8.4502587}, {"type": "node", "id": 1372142008, "lat": 47.219486, "lon": 8.5214126}, {"type": "node", "id": 1372142009, "lat": 47.2195389, "lon": 8.5214188}, {"type": "node", "id": 1372142010, "lat": 47.2195398, "lon": 8.5318721}, {"type": "node", "id": 1372142011, "lat": 47.2195443, "lon": 8.5603449}, {"type": "node", "id": 1372142012, "lat": 47.2195584, "lon": 8.5626423}, {"type": "node", "id": 1372142013, "lat": 47.2195645, "lon": 8.5800274}, {"type": "node", "id": 1372142014, "lat": 47.2195997, "lon": 8.4521061}, {"type": "node", "id": 1372142015, "lat": 47.2196031, "lon": 8.5174882}, {"type": "node", "id": 1372142016, "lat": 47.2196147, "lon": 8.5641572}, {"type": "node", "id": 1372142017, "lat": 47.2196401, "lon": 8.531815}, {"type": "node", "id": 1372142019, "lat": 47.2197189, "lon": 8.5598814}, {"type": "node", "id": 1372142020, "lat": 47.2197236, "lon": 8.5216665}, {"type": "node", "id": 1372142021, "lat": 47.2198763, "lon": 8.5801601}, {"type": "node", "id": 1372142022, "lat": 47.2198783, "lon": 8.5215622}, {"type": "node", "id": 1372142023, "lat": 47.2199063, "lon": 8.5318469}, {"type": "node", "id": 1372142024, "lat": 47.2199554, "lon": 8.5216447}, {"type": "node", "id": 1372142025, "lat": 47.2199673, "lon": 8.5319239}, {"type": "node", "id": 1372142026, "lat": 47.220023, "lon": 8.4478064}, {"type": "node", "id": 1372142027, "lat": 47.2200686, "lon": 8.4500216}, {"type": "node", "id": 1372142028, "lat": 47.2200949, "lon": 8.5318956}, {"type": "node", "id": 1372142030, "lat": 47.220109, "lon": 8.4479337}, {"type": "node", "id": 1372142031, "lat": 47.2201265, "lon": 8.4502279}, {"type": "node", "id": 1372142032, "lat": 47.2201299, "lon": 8.8084775}, {"type": "node", "id": 1372142033, "lat": 47.2201807, "lon": 8.5212142}, {"type": "node", "id": 1372142034, "lat": 47.2202406, "lon": 8.4503069}, {"type": "node", "id": 1372142035, "lat": 47.2202614, "lon": 8.5588274}, {"type": "node", "id": 1372142036, "lat": 47.2203666, "lon": 8.8068052}, {"type": "node", "id": 1372142037, "lat": 47.2206008, "lon": 8.5363622}, {"type": "node", "id": 1372142038, "lat": 47.2206495, "lon": 8.5359534}, {"type": "node", "id": 1372142039, "lat": 47.2206499, "lon": 8.5325148}, {"type": "node", "id": 1372142040, "lat": 47.2207215, "lon": 8.536398}, {"type": "node", "id": 1372142042, "lat": 47.2208051, "lon": 8.4477941}, {"type": "node", "id": 1372142043, "lat": 47.2208079, "lon": 8.5357137}, {"type": "node", "id": 1372142044, "lat": 47.2208188, "lon": 8.5798715}, {"type": "node", "id": 1372142045, "lat": 47.2208658, "lon": 8.5365651}, {"type": "node", "id": 1372142046, "lat": 47.2208743, "lon": 8.5325652}, {"type": "node", "id": 1372142048, "lat": 47.2209857, "lon": 8.5365326}, {"type": "node", "id": 1372142049, "lat": 47.2210005, "lon": 8.532524}, {"type": "node", "id": 1372142051, "lat": 47.2210619, "lon": 8.447695}, {"type": "node", "id": 1372142053, "lat": 47.2211542, "lon": 8.5366582}, {"type": "node", "id": 1372142054, "lat": 47.2211714, "lon": 8.5798654}, {"type": "node", "id": 1372142055, "lat": 47.2212289, "lon": 8.5581319}, {"type": "node", "id": 1372142056, "lat": 47.2212677, "lon": 8.5582355}, {"type": "node", "id": 1372142058, "lat": 47.221301, "lon": 8.807661}, {"type": "node", "id": 1372142060, "lat": 47.2213695, "lon": 8.5326171}, {"type": "node", "id": 1372142062, "lat": 47.2213845, "lon": 8.4473419}, {"type": "node", "id": 1372142063, "lat": 47.2213973, "lon": 8.5458789}, {"type": "node", "id": 1372142065, "lat": 47.2214986, "lon": 8.545585}, {"type": "node", "id": 1372142067, "lat": 47.2215295, "lon": 8.5451456}, {"type": "node", "id": 1372142068, "lat": 47.2215326, "lon": 8.5799445}, {"type": "node", "id": 1372142070, "lat": 47.2215418, "lon": 8.5335452}, {"type": "node", "id": 1372142071, "lat": 47.2215449, "lon": 8.5799488}, {"type": "node", "id": 1372142072, "lat": 47.2215485, "lon": 8.5365972}, {"type": "node", "id": 1372142074, "lat": 47.221576, "lon": 8.5796173}, {"type": "node", "id": 1372142075, "lat": 47.2216014, "lon": 8.5576778}, {"type": "node", "id": 1372142076, "lat": 47.2216106, "lon": 8.5791457}, {"type": "node", "id": 1372142078, "lat": 47.2216332, "lon": 8.5526611}, {"type": "node", "id": 1372142079, "lat": 47.2216557, "lon": 8.5529549}, {"type": "node", "id": 1372142080, "lat": 47.2216735, "lon": 8.5325996}, {"type": "node", "id": 1372142081, "lat": 47.2216977, "lon": 8.5512241}, {"type": "node", "id": 1372142082, "lat": 47.2217092, "lon": 8.5450969}, {"type": "node", "id": 1372142083, "lat": 47.2217522, "lon": 8.5331155}, {"type": "node", "id": 1372142085, "lat": 47.2217803, "lon": 8.5464723}, {"type": "node", "id": 1372142086, "lat": 47.2217828, "lon": 8.5367179}, {"type": "node", "id": 1372142088, "lat": 47.221839, "lon": 8.4466321}, {"type": "node", "id": 1372142090, "lat": 47.2218578, "lon": 8.5370792}, {"type": "node", "id": 1372142092, "lat": 47.2218769, "lon": 8.5778581}, {"type": "node", "id": 1372142095, "lat": 47.2218772, "lon": 8.5499682}, {"type": "node", "id": 1372142097, "lat": 47.2219216, "lon": 8.5444191}, {"type": "node", "id": 1372142099, "lat": 47.2219426, "lon": 8.5472988}, {"type": "node", "id": 1372142101, "lat": 47.2219665, "lon": 8.5469408}, {"type": "node", "id": 1372142103, "lat": 47.221975, "lon": 8.5473065}, {"type": "node", "id": 1372142105, "lat": 47.2220079, "lon": 8.5486397}, {"type": "node", "id": 1372142111, "lat": 47.2220246, "lon": 8.5530949}, {"type": "node", "id": 1372142113, "lat": 47.2220471, "lon": 8.5434402}, {"type": "node", "id": 1372142115, "lat": 47.22205, "lon": 8.5324673}, {"type": "node", "id": 1372142117, "lat": 47.2220743, "lon": 8.5374882}, {"type": "node", "id": 1372142118, "lat": 47.2220792, "lon": 8.5772572}, {"type": "node", "id": 1372142120, "lat": 47.2221207, "lon": 8.4464243}, {"type": "node", "id": 1372142126, "lat": 47.2221327, "lon": 8.5325431}, {"type": "node", "id": 1372142132, "lat": 47.2222068, "lon": 8.5379964}, {"type": "node", "id": 1372142133, "lat": 47.222296, "lon": 8.5381125}, {"type": "node", "id": 1372142134, "lat": 47.2222995, "lon": 8.4464136}, {"type": "node", "id": 1372142141, "lat": 47.2224296, "lon": 8.5384704}, {"type": "node", "id": 1372142148, "lat": 47.222548, "lon": 8.5385665}, {"type": "node", "id": 1372142152, "lat": 47.2225672, "lon": 8.7933525}, {"type": "node", "id": 1372142157, "lat": 47.2225878, "lon": 8.5761148}, {"type": "node", "id": 1372142159, "lat": 47.22259, "lon": 8.5387423}, {"type": "node", "id": 1372142163, "lat": 47.2226376, "lon": 8.4438004}, {"type": "node", "id": 1372142169, "lat": 47.2226711, "lon": 8.5387952}, {"type": "node", "id": 1372142171, "lat": 47.2227387, "lon": 8.5405834}, {"type": "node", "id": 1372142172, "lat": 47.2227399, "lon": 8.5390574}, {"type": "node", "id": 1372142180, "lat": 47.2228212, "lon": 8.4465753}, {"type": "node", "id": 1372142185, "lat": 47.2228457, "lon": 8.5391604}, {"type": "node", "id": 1372142186, "lat": 47.2228876, "lon": 8.4434988}, {"type": "node", "id": 1372142189, "lat": 47.223017, "lon": 8.5397782}, {"type": "node", "id": 1372142190, "lat": 47.2230554, "lon": 8.5392151}, {"type": "node", "id": 1372142201, "lat": 47.2230688, "lon": 8.4446062}, {"type": "node", "id": 1372142203, "lat": 47.2230813, "lon": 8.5393302}, {"type": "node", "id": 1372142204, "lat": 47.2230814, "lon": 8.4431616}, {"type": "node", "id": 1372142205, "lat": 47.2231297, "lon": 8.5764267}, {"type": "node", "id": 1372142214, "lat": 47.2232373, "lon": 8.5538365}, {"type": "node", "id": 1372142215, "lat": 47.2233208, "lon": 8.4216847}, {"type": "node", "id": 1372142217, "lat": 47.2233355, "lon": 8.4459125}, {"type": "node", "id": 1372142220, "lat": 47.223379, "lon": 8.44664}, {"type": "node", "id": 1372142229, "lat": 47.2234499, "lon": 8.4230536}, {"type": "node", "id": 1372142232, "lat": 47.2235098, "lon": 8.4232517}, {"type": "node", "id": 1372142234, "lat": 47.2235154, "lon": 8.5762028}, {"type": "node", "id": 1372142237, "lat": 47.223565, "lon": 8.4426173}, {"type": "node", "id": 1372142239, "lat": 47.2235892, "lon": 8.4428491}, {"type": "node", "id": 1372142240, "lat": 47.2235908, "lon": 8.4241294}, {"type": "node", "id": 1372142242, "lat": 47.2236866, "lon": 8.4371571}, {"type": "node", "id": 1372142244, "lat": 47.2236907, "lon": 8.435534}, {"type": "node", "id": 1372142246, "lat": 47.2237282, "lon": 8.4248846}, {"type": "node", "id": 1372142247, "lat": 47.2237564, "lon": 8.4256315}, {"type": "node", "id": 1372142249, "lat": 47.2237963, "lon": 8.4215172}, {"type": "node", "id": 1372142250, "lat": 47.223811, "lon": 8.4360469}, {"type": "node", "id": 1372142253, "lat": 47.2239018, "lon": 8.4390529}, {"type": "node", "id": 1372142254, "lat": 47.2239232, "lon": 8.4422653}, {"type": "node", "id": 1372142257, "lat": 47.224066, "lon": 8.4269511}, {"type": "node", "id": 1372142264, "lat": 47.2241253, "lon": 8.4323049}, {"type": "node", "id": 1372142265, "lat": 47.2241775, "lon": 8.5759626}, {"type": "node", "id": 1372142274, "lat": 47.2243264, "lon": 8.4400175}, {"type": "node", "id": 1372142283, "lat": 47.224661, "lon": 8.421372}, {"type": "node", "id": 1372142290, "lat": 47.2248483, "lon": 8.4415613}, {"type": "node", "id": 1372142292, "lat": 47.2248707, "lon": 8.4303231}, {"type": "node", "id": 1372142293, "lat": 47.224873, "lon": 8.4292811}, {"type": "node", "id": 1372142294, "lat": 47.2249511, "lon": 8.4297588}, {"type": "node", "id": 1372142299, "lat": 47.2250519, "lon": 8.5758892}, {"type": "node", "id": 1372142304, "lat": 47.2252153, "lon": 8.4411217}, {"type": "node", "id": 1372142306, "lat": 47.2252968, "lon": 8.5751645}, {"type": "node", "id": 1372142316, "lat": 47.2256471, "lon": 8.4209299}, {"type": "node", "id": 1372142321, "lat": 47.2257254, "lon": 8.4208165}, {"type": "node", "id": 1372142325, "lat": 47.2257629, "lon": 8.4199582}, {"type": "node", "id": 1372142334, "lat": 47.2258867, "lon": 8.574338}, {"type": "node", "id": 1372142345, "lat": 47.2261645, "lon": 8.4186933}, {"type": "node", "id": 1372142346, "lat": 47.2261768, "lon": 8.4185219}, {"type": "node", "id": 1372142347, "lat": 47.2262702, "lon": 8.5733524}, {"type": "node", "id": 1372142349, "lat": 47.2262872, "lon": 8.4191755}, {"type": "node", "id": 1372142355, "lat": 47.2263108, "lon": 8.4189469}, {"type": "node", "id": 1372142357, "lat": 47.2263414, "lon": 8.5724637}, {"type": "node", "id": 1372142361, "lat": 47.2264137, "lon": 8.5720614}, {"type": "node", "id": 1372142372, "lat": 47.2266209, "lon": 8.4181755}, {"type": "node", "id": 1372142373, "lat": 47.226647, "lon": 8.5714208}, {"type": "node", "id": 1372142380, "lat": 47.2266863, "lon": 8.5708423}, {"type": "node", "id": 1372142400, "lat": 47.2269514, "lon": 8.4183433}, {"type": "node", "id": 1372142410, "lat": 47.2270891, "lon": 8.570258}, {"type": "node", "id": 1372142412, "lat": 47.2270904, "lon": 8.5696708}, {"type": "node", "id": 1372142418, "lat": 47.2272004, "lon": 8.4182026}, {"type": "node", "id": 1372142432, "lat": 47.2273013, "lon": 8.5692532}, {"type": "node", "id": 1372142435, "lat": 47.2274354, "lon": 8.5688249}, {"type": "node", "id": 1372142466, "lat": 47.2284143, "lon": 8.4179402}, {"type": "node", "id": 1372142479, "lat": 47.2286443, "lon": 8.4177682}, {"type": "node", "id": 1372142484, "lat": 47.2288228, "lon": 8.4172412}, {"type": "node", "id": 1372142498, "lat": 47.2289585, "lon": 8.4172114}, {"type": "node", "id": 1372142500, "lat": 47.2291332, "lon": 8.5675851}, {"type": "node", "id": 1372142506, "lat": 47.2291794, "lon": 8.4173633}, {"type": "node", "id": 1372142518, "lat": 47.2293538, "lon": 8.4173731}, {"type": "node", "id": 1372142556, "lat": 47.2302509, "lon": 8.5669742}, {"type": "node", "id": 1372142558, "lat": 47.2303653, "lon": 8.4171579}, {"type": "node", "id": 1372142579, "lat": 47.2307277, "lon": 8.4169644}, {"type": "node", "id": 1372142593, "lat": 47.2308582, "lon": 8.5667949}, {"type": "node", "id": 1372142612, "lat": 47.2314042, "lon": 8.7019452}, {"type": "node", "id": 1372142616, "lat": 47.2315982, "lon": 8.5657968}, {"type": "node", "id": 1372142649, "lat": 47.2322017, "lon": 8.5643742}, {"type": "node", "id": 1372142655, "lat": 47.2322702, "lon": 8.4168302}, {"type": "node", "id": 1372142667, "lat": 47.2325196, "lon": 8.5638974}, {"type": "node", "id": 1372142684, "lat": 47.2329429, "lon": 8.5634554}, {"type": "node", "id": 1372142696, "lat": 47.2330814, "lon": 8.4169481}, {"type": "node", "id": 1372142728, "lat": 47.2337701, "lon": 8.417036}, {"type": "node", "id": 1372142788, "lat": 47.2345436, "lon": 8.4166328}, {"type": "node", "id": 1372142793, "lat": 47.2346145, "lon": 8.6954829}, {"type": "node", "id": 1372142796, "lat": 47.2347105, "lon": 8.5627907}, {"type": "node", "id": 1372142806, "lat": 47.2348161, "lon": 8.4165935}, {"type": "node", "id": 1372142824, "lat": 47.235163, "lon": 8.5625317}, {"type": "node", "id": 1372142834, "lat": 47.2352582, "lon": 8.4167528}, {"type": "node", "id": 1372142860, "lat": 47.2356952, "lon": 8.5624013}, {"type": "node", "id": 1372142880, "lat": 47.236104, "lon": 8.4162253}, {"type": "node", "id": 1372142890, "lat": 47.2362962, "lon": 8.5621596}, {"type": "node", "id": 1372142904, "lat": 47.2366236, "lon": 8.562242}, {"type": "node", "id": 1372142911, "lat": 47.236854, "lon": 8.5619927}, {"type": "node", "id": 1372142915, "lat": 47.236974, "lon": 8.4164871}, {"type": "node", "id": 1372142922, "lat": 47.2370731, "lon": 8.5615726}, {"type": "node", "id": 1372142926, "lat": 47.2371461, "lon": 8.416407}, {"type": "node", "id": 1372142935, "lat": 47.2373529, "lon": 8.4162503}, {"type": "node", "id": 1372142969, "lat": 47.2376595, "lon": 8.4157937}, {"type": "node", "id": 1372142988, "lat": 47.2379522, "lon": 8.5608742}, {"type": "node", "id": 1372142996, "lat": 47.2380585, "lon": 8.415412}, {"type": "node", "id": 1372143013, "lat": 47.238447, "lon": 8.4151622}, {"type": "node", "id": 1372143019, "lat": 47.2387472, "lon": 8.4144531}, {"type": "node", "id": 1372143021, "lat": 47.238801, "lon": 8.5606925}, {"type": "node", "id": 1372143031, "lat": 47.2389432, "lon": 8.4142474}, {"type": "node", "id": 1372143040, "lat": 47.2391195, "lon": 8.7957115}, {"type": "node", "id": 1372143044, "lat": 47.239155, "lon": 8.4141958}, {"type": "node", "id": 1372143056, "lat": 47.2393872, "lon": 8.414241}, {"type": "node", "id": 1372143062, "lat": 47.2394511, "lon": 8.5602338}, {"type": "node", "id": 1372143070, "lat": 47.2396694, "lon": 8.7956118}, {"type": "node", "id": 1372143071, "lat": 47.2397502, "lon": 8.4146544}, {"type": "node", "id": 1372143072, "lat": 47.2398437, "lon": 8.7956611}, {"type": "node", "id": 1372143074, "lat": 47.2398876, "lon": 8.7957267}, {"type": "node", "id": 1372143076, "lat": 47.2399811, "lon": 8.4151202}, {"type": "node", "id": 1372143078, "lat": 47.2400308, "lon": 8.7956615}, {"type": "node", "id": 1372143080, "lat": 47.2401148, "lon": 8.7960357}, {"type": "node", "id": 1372143081, "lat": 47.2401279, "lon": 8.4156308}, {"type": "node", "id": 1372143082, "lat": 47.2401406, "lon": 8.7959249}, {"type": "node", "id": 1372143083, "lat": 47.2401477, "lon": 8.7960218}, {"type": "node", "id": 1372143085, "lat": 47.2402134, "lon": 8.5594799}, {"type": "node", "id": 1372143086, "lat": 47.2402209, "lon": 8.7958627}, {"type": "node", "id": 1372143087, "lat": 47.2402948, "lon": 8.7958939}, {"type": "node", "id": 1372143088, "lat": 47.2403151, "lon": 8.7959715}, {"type": "node", "id": 1372143098, "lat": 47.2408327, "lon": 8.796265}, {"type": "node", "id": 1372143099, "lat": 47.2408488, "lon": 8.5590676}, {"type": "node", "id": 1372143106, "lat": 47.2410411, "lon": 8.5590049}, {"type": "node", "id": 1372143108, "lat": 47.2410889, "lon": 8.4164943}, {"type": "node", "id": 1372143112, "lat": 47.2412261, "lon": 8.5586438}, {"type": "node", "id": 1372143116, "lat": 47.2413224, "lon": 8.4164867}, {"type": "node", "id": 1372143121, "lat": 47.2414008, "lon": 8.7962928}, {"type": "node", "id": 1372143132, "lat": 47.2416054, "lon": 8.5582658}, {"type": "node", "id": 1372143137, "lat": 47.2417127, "lon": 8.5580429}, {"type": "node", "id": 1372143138, "lat": 47.2417284, "lon": 8.4160233}, {"type": "node", "id": 1372143153, "lat": 47.2421011, "lon": 8.7964675}, {"type": "node", "id": 1372143154, "lat": 47.2421113, "lon": 8.7988404}, {"type": "node", "id": 1372143155, "lat": 47.2421151, "lon": 8.7992694}, {"type": "node", "id": 1372143158, "lat": 47.2421667, "lon": 8.5577984}, {"type": "node", "id": 1372143159, "lat": 47.2421675, "lon": 8.7963279}, {"type": "node", "id": 1372143160, "lat": 47.2421798, "lon": 8.7981991}, {"type": "node", "id": 1372143163, "lat": 47.2423053, "lon": 8.4157789}, {"type": "node", "id": 1372143164, "lat": 47.2424089, "lon": 8.7969255}, {"type": "node", "id": 1372143166, "lat": 47.2424432, "lon": 8.4155245}, {"type": "node", "id": 1372143169, "lat": 47.2425105, "lon": 8.7969971}, {"type": "node", "id": 1372143171, "lat": 47.2425245, "lon": 8.7965168}, {"type": "node", "id": 1372143172, "lat": 47.2425493, "lon": 8.4149017}, {"type": "node", "id": 1372143176, "lat": 47.2426647, "lon": 8.4146013}, {"type": "node", "id": 1372143177, "lat": 47.2427012, "lon": 8.5572854}, {"type": "node", "id": 1372143180, "lat": 47.2427926, "lon": 8.4144782}, {"type": "node", "id": 1372143184, "lat": 47.2429784, "lon": 8.5567111}, {"type": "node", "id": 1372143187, "lat": 47.2430671, "lon": 8.7990468}, {"type": "node", "id": 1372143188, "lat": 47.2430956, "lon": 8.7996369}, {"type": "node", "id": 1372143191, "lat": 47.2432534, "lon": 8.5558704}, {"type": "node", "id": 1372143192, "lat": 47.2432647, "lon": 8.8607012}, {"type": "node", "id": 1372143194, "lat": 47.2432768, "lon": 8.8605695}, {"type": "node", "id": 1372143195, "lat": 47.2433423, "lon": 8.5557376}, {"type": "node", "id": 1372143196, "lat": 47.2433841, "lon": 8.5553971}, {"type": "node", "id": 1372143198, "lat": 47.2435194, "lon": 8.4141057}, {"type": "node", "id": 1372143199, "lat": 47.2435297, "lon": 8.860316}, {"type": "node", "id": 1372143201, "lat": 47.2435588, "lon": 8.8599457}, {"type": "node", "id": 1372143204, "lat": 47.2436338, "lon": 8.8598595}, {"type": "node", "id": 1372143205, "lat": 47.2436634, "lon": 8.800374}, {"type": "node", "id": 1372143207, "lat": 47.2436703, "lon": 8.4140085}, {"type": "node", "id": 1372143211, "lat": 47.2437543, "lon": 8.860084}, {"type": "node", "id": 1372143213, "lat": 47.2438333, "lon": 8.8003604}, {"type": "node", "id": 1372143214, "lat": 47.2438368, "lon": 8.5544006}, {"type": "node", "id": 1372143218, "lat": 47.2439643, "lon": 8.8666011}, {"type": "node", "id": 1372143219, "lat": 47.2439799, "lon": 8.8621265}, {"type": "node", "id": 1372143220, "lat": 47.2439812, "lon": 8.8599949}, {"type": "node", "id": 1372143226, "lat": 47.2441717, "lon": 8.8005554}, {"type": "node", "id": 1372143231, "lat": 47.2442942, "lon": 8.8593361}, {"type": "node", "id": 1372143235, "lat": 47.2443242, "lon": 8.8676467}, {"type": "node", "id": 1372143236, "lat": 47.2443568, "lon": 8.4134229}, {"type": "node", "id": 1372143238, "lat": 47.2443862, "lon": 8.8552301}, {"type": "node", "id": 1372143239, "lat": 47.2443907, "lon": 8.8577838}, {"type": "node", "id": 1372143240, "lat": 47.2443912, "lon": 8.8556278}, {"type": "node", "id": 1372143242, "lat": 47.2444467, "lon": 8.5532685}, {"type": "node", "id": 1372143244, "lat": 47.2444678, "lon": 8.8005793}, {"type": "node", "id": 1372143247, "lat": 47.2444925, "lon": 8.8586544}, {"type": "node", "id": 1372143251, "lat": 47.2445406, "lon": 8.5532689}, {"type": "node", "id": 1372143253, "lat": 47.2446978, "lon": 8.8684801}, {"type": "node", "id": 1372143257, "lat": 47.244779, "lon": 8.4132272}, {"type": "node", "id": 1372143259, "lat": 47.244813, "lon": 8.8023284}, {"type": "node", "id": 1372143261, "lat": 47.2448449, "lon": 8.8563361}, {"type": "node", "id": 1372143262, "lat": 47.2448715, "lon": 8.8572444}, {"type": "node", "id": 1372143263, "lat": 47.2448769, "lon": 8.8662939}, {"type": "node", "id": 1372143264, "lat": 47.2449209, "lon": 8.5530127}, {"type": "node", "id": 1372143265, "lat": 47.2449521, "lon": 8.8018718}, {"type": "node", "id": 1372143267, "lat": 47.2449688, "lon": 8.8569352}, {"type": "node", "id": 1372143268, "lat": 47.2449857, "lon": 8.802608}, {"type": "node", "id": 1372143269, "lat": 47.2450266, "lon": 8.8025464}, {"type": "node", "id": 1372143270, "lat": 47.2450391, "lon": 8.5528014}, {"type": "node", "id": 1372143274, "lat": 47.2450434, "lon": 8.8697453}, {"type": "node", "id": 1372143279, "lat": 47.2450903, "lon": 8.5525996}, {"type": "node", "id": 1372143282, "lat": 47.2451453, "lon": 8.8547284}, {"type": "node", "id": 1372143285, "lat": 47.2451615, "lon": 8.8545108}, {"type": "node", "id": 1372143287, "lat": 47.2452219, "lon": 8.8026098}, {"type": "node", "id": 1372143289, "lat": 47.2452344, "lon": 8.4130862}, {"type": "node", "id": 1372143292, "lat": 47.2453165, "lon": 8.870169}, {"type": "node", "id": 1372143294, "lat": 47.2453579, "lon": 8.8541964}, {"type": "node", "id": 1372143296, "lat": 47.2453595, "lon": 8.5522722}, {"type": "node", "id": 1372143297, "lat": 47.2453687, "lon": 8.8027811}, {"type": "node", "id": 1372143300, "lat": 47.2455359, "lon": 8.870526}, {"type": "node", "id": 1372143304, "lat": 47.2456793, "lon": 8.8542458}, {"type": "node", "id": 1372143305, "lat": 47.2456824, "lon": 8.5521664}, {"type": "node", "id": 1372143308, "lat": 47.2458794, "lon": 8.8709605}, {"type": "node", "id": 1372143312, "lat": 47.2459154, "lon": 8.5519235}, {"type": "node", "id": 1372143315, "lat": 47.2459667, "lon": 8.8544331}, {"type": "node", "id": 1372143316, "lat": 47.2459992, "lon": 8.8709051}, {"type": "node", "id": 1372143321, "lat": 47.2460685, "lon": 8.4130076}, {"type": "node", "id": 1372143323, "lat": 47.2461232, "lon": 8.5516009}, {"type": "node", "id": 1372143324, "lat": 47.2461279, "lon": 8.5513278}, {"type": "node", "id": 1372143327, "lat": 47.2461595, "lon": 8.8541938}, {"type": "node", "id": 1372143331, "lat": 47.2462736, "lon": 8.5505857}, {"type": "node", "id": 1372143339, "lat": 47.246391, "lon": 8.5503477}, {"type": "node", "id": 1372143341, "lat": 47.2464074, "lon": 8.8026322}, {"type": "node", "id": 1372143351, "lat": 47.2465566, "lon": 8.8533582}, {"type": "node", "id": 1372143352, "lat": 47.2465719, "lon": 8.4127288}, {"type": "node", "id": 1372143353, "lat": 47.2465771, "lon": 8.8708933}, {"type": "node", "id": 1372143354, "lat": 47.2465928, "lon": 8.5501135}, {"type": "node", "id": 1372143358, "lat": 47.2466348, "lon": 8.852701}, {"type": "node", "id": 1372143360, "lat": 47.2466728, "lon": 8.8025031}, {"type": "node", "id": 1372143367, "lat": 47.2468754, "lon": 8.8525178}, {"type": "node", "id": 1372143368, "lat": 47.2468881, "lon": 8.8706019}, {"type": "node", "id": 1372143370, "lat": 47.246915, "lon": 8.8418563}, {"type": "node", "id": 1372143374, "lat": 47.2469669, "lon": 8.8707536}, {"type": "node", "id": 1372143375, "lat": 47.2469679, "lon": 8.8395835}, {"type": "node", "id": 1372143376, "lat": 47.2469762, "lon": 8.8447163}, {"type": "node", "id": 1372143377, "lat": 47.2469777, "lon": 8.8379004}, {"type": "node", "id": 1372143379, "lat": 47.2470147, "lon": 8.841458}, {"type": "node", "id": 1372143380, "lat": 47.2470214, "lon": 8.8712335}, {"type": "node", "id": 1372143381, "lat": 47.2470301, "lon": 8.8376566}, {"type": "node", "id": 1372143382, "lat": 47.2470484, "lon": 8.412332}, {"type": "node", "id": 1372143383, "lat": 47.2470556, "lon": 8.8045919}, {"type": "node", "id": 1372143385, "lat": 47.2470832, "lon": 8.871285}, {"type": "node", "id": 1372143391, "lat": 47.247109, "lon": 8.5489245}, {"type": "node", "id": 1372143393, "lat": 47.247113, "lon": 8.8375073}, {"type": "node", "id": 1372143395, "lat": 47.2471229, "lon": 8.8718473}, {"type": "node", "id": 1372143412, "lat": 47.2472078, "lon": 8.8719397}, {"type": "node", "id": 1372143415, "lat": 47.2472334, "lon": 8.8374168}, {"type": "node", "id": 1372143419, "lat": 47.2472862, "lon": 8.8446633}, {"type": "node", "id": 1372143421, "lat": 47.2473376, "lon": 8.8064855}, {"type": "node", "id": 1372143423, "lat": 47.2473382, "lon": 8.8526331}, {"type": "node", "id": 1372143431, "lat": 47.2474138, "lon": 8.4119344}, {"type": "node", "id": 1372143435, "lat": 47.2474689, "lon": 8.8731886}, {"type": "node", "id": 1372143437, "lat": 47.2474767, "lon": 8.5483676}, {"type": "node", "id": 1372143443, "lat": 47.2475745, "lon": 8.8733589}, {"type": "node", "id": 1372143448, "lat": 47.2476611, "lon": 8.8080123}, {"type": "node", "id": 1372143454, "lat": 47.2476646, "lon": 8.8737567}, {"type": "node", "id": 1372143457, "lat": 47.2476746, "lon": 8.8372913}, {"type": "node", "id": 1372143462, "lat": 47.2477349, "lon": 8.8085727}, {"type": "node", "id": 1372143464, "lat": 47.2477519, "lon": 8.8358366}, {"type": "node", "id": 1372143466, "lat": 47.2477632, "lon": 8.5476401}, {"type": "node", "id": 1372143468, "lat": 47.2477806, "lon": 8.8356033}, {"type": "node", "id": 1372143470, "lat": 47.2478139, "lon": 8.8529416}, {"type": "node", "id": 1372143476, "lat": 47.2478724, "lon": 8.8449956}, {"type": "node", "id": 1372143478, "lat": 47.2478917, "lon": 8.8354903}, {"type": "node", "id": 1372143487, "lat": 47.2479062, "lon": 8.835542}, {"type": "node", "id": 1372143490, "lat": 47.2479277, "lon": 8.808746}, {"type": "node", "id": 1372143491, "lat": 47.2479469, "lon": 8.4111251}, {"type": "node", "id": 1372143492, "lat": 47.2479525, "lon": 8.8090108}, {"type": "node", "id": 1372143493, "lat": 47.2479561, "lon": 8.873581}, {"type": "node", "id": 1372143495, "lat": 47.2479805, "lon": 8.8368696}, {"type": "node", "id": 1372143501, "lat": 47.2479866, "lon": 8.8367489}, {"type": "node", "id": 1372143503, "lat": 47.2480116, "lon": 8.8092957}, {"type": "node", "id": 1372143507, "lat": 47.2480665, "lon": 8.8095692}, {"type": "node", "id": 1372143509, "lat": 47.2480758, "lon": 8.8739131}, {"type": "node", "id": 1372143511, "lat": 47.2480818, "lon": 8.8101428}, {"type": "node", "id": 1372143512, "lat": 47.2482418, "lon": 8.4104977}, {"type": "node", "id": 1372143515, "lat": 47.2483045, "lon": 8.5471114}, {"type": "node", "id": 1372143520, "lat": 47.2483758, "lon": 8.4100734}, {"type": "node", "id": 1372143522, "lat": 47.2484216, "lon": 8.8118584}, {"type": "node", "id": 1372143524, "lat": 47.2484324, "lon": 8.8057923}, {"type": "node", "id": 1372143529, "lat": 47.2484791, "lon": 8.8527677}, {"type": "node", "id": 1372143530, "lat": 47.2485363, "lon": 8.8123014}, {"type": "node", "id": 1372143534, "lat": 47.2485443, "lon": 8.7957319}, {"type": "node", "id": 1372143536, "lat": 47.2485796, "lon": 8.8122905}, {"type": "node", "id": 1372143541, "lat": 47.2486264, "lon": 8.7955971}, {"type": "node", "id": 1372143544, "lat": 47.2486275, "lon": 8.8447361}, {"type": "node", "id": 1372143545, "lat": 47.2486446, "lon": 8.7982161}, {"type": "node", "id": 1372143546, "lat": 47.2486644, "lon": 8.8737636}, {"type": "node", "id": 1372143556, "lat": 47.2486747, "lon": 8.5468994}, {"type": "node", "id": 1372143562, "lat": 47.2487997, "lon": 8.7996735}, {"type": "node", "id": 1372143563, "lat": 47.2488013, "lon": 8.8129961}, {"type": "node", "id": 1372143564, "lat": 47.2488466, "lon": 8.8135959}, {"type": "node", "id": 1372143565, "lat": 47.248848, "lon": 8.8146389}, {"type": "node", "id": 1372143566, "lat": 47.2488802, "lon": 8.8738401}, {"type": "node", "id": 1372143577, "lat": 47.248962, "lon": 8.8157764}, {"type": "node", "id": 1372143578, "lat": 47.2489706, "lon": 8.7951228}, {"type": "node", "id": 1372143579, "lat": 47.2489919, "lon": 8.7999595}, {"type": "node", "id": 1372143580, "lat": 47.249005, "lon": 8.835176}, {"type": "node", "id": 1372143582, "lat": 47.2490128, "lon": 8.8350961}, {"type": "node", "id": 1372143588, "lat": 47.2490723, "lon": 8.8007804}, {"type": "node", "id": 1372143595, "lat": 47.2490868, "lon": 8.8334818}, {"type": "node", "id": 1372143597, "lat": 47.2491371, "lon": 8.8334971}, {"type": "node", "id": 1372143598, "lat": 47.2491394, "lon": 8.8333356}, {"type": "node", "id": 1372143600, "lat": 47.2491743, "lon": 8.834989}, {"type": "node", "id": 1372143602, "lat": 47.2492212, "lon": 8.8337814}, {"type": "node", "id": 1372143606, "lat": 47.2492319, "lon": 8.8464478}, {"type": "node", "id": 1372143613, "lat": 47.2492552, "lon": 8.8519131}, {"type": "node", "id": 1372143614, "lat": 47.249279, "lon": 8.5459844}, {"type": "node", "id": 1372143616, "lat": 47.2492861, "lon": 8.8528662}, {"type": "node", "id": 1372143619, "lat": 47.249373, "lon": 8.8346486}, {"type": "node", "id": 1372143623, "lat": 47.2494094, "lon": 8.8340346}, {"type": "node", "id": 1372143634, "lat": 47.2494685, "lon": 8.8470069}, {"type": "node", "id": 1372143635, "lat": 47.2494983, "lon": 8.8330422}, {"type": "node", "id": 1372143636, "lat": 47.249558, "lon": 8.8469353}, {"type": "node", "id": 1372143638, "lat": 47.2495614, "lon": 8.83258}, {"type": "node", "id": 1372143642, "lat": 47.2495671, "lon": 8.8328239}, {"type": "node", "id": 1372143649, "lat": 47.2496109, "lon": 8.8170227}, {"type": "node", "id": 1372143650, "lat": 47.2496114, "lon": 8.8173921}, {"type": "node", "id": 1372143652, "lat": 47.2496184, "lon": 8.8518872}, {"type": "node", "id": 1372143657, "lat": 47.2496646, "lon": 8.8167162}, {"type": "node", "id": 1372143659, "lat": 47.2496651, "lon": 8.8738585}, {"type": "node", "id": 1372143667, "lat": 47.2496718, "lon": 8.6697979}, {"type": "node", "id": 1372143669, "lat": 47.2497601, "lon": 8.5455911}, {"type": "node", "id": 1372143673, "lat": 47.2497639, "lon": 8.8185331}, {"type": "node", "id": 1372143675, "lat": 47.2497839, "lon": 8.7946652}, {"type": "node", "id": 1372143677, "lat": 47.2497879, "lon": 8.8479937}, {"type": "node", "id": 1372143680, "lat": 47.2498132, "lon": 8.8319912}, {"type": "node", "id": 1372143688, "lat": 47.2498935, "lon": 8.8289868}, {"type": "node", "id": 1372143691, "lat": 47.2499309, "lon": 8.8295254}, {"type": "node", "id": 1372143693, "lat": 47.2499715, "lon": 8.4084941}, {"type": "node", "id": 1372143695, "lat": 47.2499838, "lon": 8.8313256}, {"type": "node", "id": 1372143697, "lat": 47.2499948, "lon": 8.830504}, {"type": "node", "id": 1372143699, "lat": 47.2499966, "lon": 8.7943012}, {"type": "node", "id": 1372143707, "lat": 47.2500497, "lon": 8.8319769}, {"type": "node", "id": 1372143708, "lat": 47.2500501, "lon": 8.8194462}, {"type": "node", "id": 1372143713, "lat": 47.2500958, "lon": 8.5454316}, {"type": "node", "id": 1372143715, "lat": 47.250113, "lon": 8.8200851}, {"type": "node", "id": 1372143727, "lat": 47.2502402, "lon": 8.8301021}, {"type": "node", "id": 1372143728, "lat": 47.2502459, "lon": 8.8285318}, {"type": "node", "id": 1372143732, "lat": 47.2502679, "lon": 8.820586}, {"type": "node", "id": 1372143734, "lat": 47.2502691, "lon": 8.8520406}, {"type": "node", "id": 1372143742, "lat": 47.2503537, "lon": 8.8279044}, {"type": "node", "id": 1372143746, "lat": 47.2504642, "lon": 8.8283236}, {"type": "node", "id": 1372143750, "lat": 47.2505126, "lon": 8.5447444}, {"type": "node", "id": 1372143759, "lat": 47.2505492, "lon": 8.8519814}, {"type": "node", "id": 1372143760, "lat": 47.250594, "lon": 8.8507303}, {"type": "node", "id": 1372143764, "lat": 47.2506691, "lon": 8.7936926}, {"type": "node", "id": 1372143766, "lat": 47.2507119, "lon": 8.4076645}, {"type": "node", "id": 1372143768, "lat": 47.2507236, "lon": 8.5446281}, {"type": "node", "id": 1372143771, "lat": 47.2507371, "lon": 8.8216313}, {"type": "node", "id": 1372143777, "lat": 47.2507657, "lon": 8.821562}, {"type": "node", "id": 1372143778, "lat": 47.2507684, "lon": 8.8520796}, {"type": "node", "id": 1372143780, "lat": 47.2507953, "lon": 8.7936969}, {"type": "node", "id": 1372143787, "lat": 47.2508721, "lon": 8.8734131}, {"type": "node", "id": 1372143791, "lat": 47.2509633, "lon": 8.8230046}, {"type": "node", "id": 1372143818, "lat": 47.2509683, "lon": 8.5447131}, {"type": "node", "id": 1372143822, "lat": 47.251037, "lon": 8.8516078}, {"type": "node", "id": 1372143826, "lat": 47.2511189, "lon": 8.8517105}, {"type": "node", "id": 1372143830, "lat": 47.2511282, "lon": 8.8734891}, {"type": "node", "id": 1372143832, "lat": 47.2511488, "lon": 8.544599}, {"type": "node", "id": 1372143836, "lat": 47.2512285, "lon": 8.7940391}, {"type": "node", "id": 1372143846, "lat": 47.2513328, "lon": 8.8272369}, {"type": "node", "id": 1372143848, "lat": 47.2513467, "lon": 8.7932686}, {"type": "node", "id": 1372143852, "lat": 47.2513832, "lon": 8.7940208}, {"type": "node", "id": 1372143853, "lat": 47.2513866, "lon": 8.5442257}, {"type": "node", "id": 1372143864, "lat": 47.2514274, "lon": 8.8265942}, {"type": "node", "id": 1372143865, "lat": 47.2514675, "lon": 8.8268174}, {"type": "node", "id": 1372143866, "lat": 47.2514962, "lon": 8.7939193}, {"type": "node", "id": 1372143868, "lat": 47.2515126, "lon": 8.8268124}, {"type": "node", "id": 1372143893, "lat": 47.2516374, "lon": 8.5439999}, {"type": "node", "id": 1372143899, "lat": 47.251766, "lon": 8.543798}, {"type": "node", "id": 1372143902, "lat": 47.2518689, "lon": 8.7920083}, {"type": "node", "id": 1372143925, "lat": 47.2519915, "lon": 8.8734875}, {"type": "node", "id": 1372143927, "lat": 47.2520365, "lon": 8.7911822}, {"type": "node", "id": 1372143929, "lat": 47.2521122, "lon": 8.8744091}, {"type": "node", "id": 1372143930, "lat": 47.2521235, "lon": 8.5437564}, {"type": "node", "id": 1372143947, "lat": 47.2521766, "lon": 8.8781202}, {"type": "node", "id": 1372143957, "lat": 47.2522244, "lon": 8.8748865}, {"type": "node", "id": 1372143960, "lat": 47.2522853, "lon": 8.7903009}, {"type": "node", "id": 1372143961, "lat": 47.2523011, "lon": 8.8788581},